external_id,store_id,brand,name,lat,lng,address,city,state,zip,country,phone_number,time_zone,dma,status,website_url,geofence_radius
4513,4513,Aeropostale,PRIME OUTLET AEROPOSTALE,18.437485,-66.542679,PRIME OUTLET PUERTO RICO,BARCELONETA,PR,00613,USA,,America/Halifax,,,,
4514,4514,Aeropostale,PLAZA DEL NORTE AERO,18.482117,-66.772019,506 TRUCADO ST. PR-2,HATILO,PR,00659,USA,,America/Halifax,,,,
4518,4518,Aeropostale,PLAZA ISABELA,18.469,-67.0234,PR2 & PR4 4494,ISABELA,PR,00662,USA,,America/Halifax,,,,
4519,4519,Aeropostale,MAYAGUEZ MALL AEROPOSTALE,0,0,MAYAGUEZ MALL,MAYAGUEZ,PR,00680,USA,,America/Halifax,,,,
4520,4520,Aeropostale,PLAZA DEL CARIBE AEROPOST,0,0,PLAZA DEL CARIBE,PONCE,PR,00717,USA,,America/Halifax,,,,
4515,4515,Aeropostale,LAS CATALINAS MALL,18.23636,-66.041306,400 CALLE BEANCES,CAGUAS,PR,00725,USA,,America/Halifax,,,,
4516,4516,Aeropostale,THE OUTLET AT ROUTE 66,18.371103,-65.899687,STATE ROAD #3 KM 18.4,CANOVANAS,PR,00729,USA,,America/Halifax,,,,
4512,4512,Aeropostale,LAS AMERICAS AERO PR,18.421792,-66.074379,PLAZA LAS AMERICAS,SAN JUAN,PR,00918,USA,,America/Halifax,,,,
4517,4517,Aeropostale,PLAZA DEL SOL,18.406454,-66.163091,725 AVENIDA PRINCIPAL OES,BAYAMON,PR,00961,USA,,America/Halifax,,,,
4511,4511,Aeropostale,CAROLINA AEROPOSTALE PR,18.393819,-65.973736,PLAZA CAROLINA,CAROLINA,PR,00983,USA,,America/Halifax,,,,
704,704,Aeropostale,HAMPSHIRE AEROPOSTALE,42.357964,-72.550337,HAMPSHIRE MALL,HADLEY,MA,01035,USA,,America/New_York,,,,
112,112,Aeropostale,HOLYOKE AEROPOSTALE,42.171947,-72.640257,HOLYOKE MALL,HOLYOKE,MA,01040,USA,,America/New_York,,,,
468,468,Aeropostale,EASTFIELD AEROPOSTALE,42.143197,-72.488363,EASTFIELD MALL,SPRINGFIELD,MA,01129,USA,,America/New_York,,,,
344,344,Aeropostale,BERKSHIRE (MA) AEROPOSTAL,42.491925,-73.20538,BERKSHIRE MALL,LANESBORO,MA,01237,USA,,America/New_York,,,,
935,935,Aeropostale,LEE AEROPOSTALE,42.296838,-73.234749,PRIME OUTLETS LEE,LEE,MA,01238,USA,,America/New_York,,,,
339,339,Aeropostale,WHITNEY FIELD AEROPOSTALE,42.530239,-71.740147,THE MALL AT WHITNEY FIELD,LEOMINSTER,MA,01453,USA,,America/New_York,,,,
815,815,Aeropostale,AUBURN AEROPOSTALE,42.2041,-71.83633,AUBURN MALL,AUBURN,MA,01501,USA,,America/New_York,,,,
1020,1020,Aeropostale,GREENDALE AEROPOSTALE,42.298694,-71.801953,GREENDALE MALL,WORCESTER,MA,01606,USA,,America/New_York,,,,
362,362,Aeropostale,SOLOMON POND AEROPOSTALE,42.354338,-71.612345,SOLOMON POND,MARLBOROUGH,MA,01752,USA,,America/New_York,,,,
106,106,Aeropostale,NATICK AEROPOSTALE,42.299275,-71.384962,NATICK MALL,NATICK,MA,01760,USA,,America/New_York,,,,
63,63,Aeropostale,BRLNGTON (MA) AEROPOSTALE,42.479847,-71.216305,BURLINGTON MALL SP C16A,BURLINGTON,MA,01803,USA,,America/New_York,,,,
50,50,Aeropostale,SQUARE ONE AEROPOSTALE,42.461952,-71.028332,SQUARE ONE MALL,SAUGUS,MA,01906,USA,,America/New_York,,,,
200,200,Aeropostale,NORTH SHORE AEROPOSTALE,42.543291,-70.942186,NORTH SHORE MALL,PEABODY,MA,01960,USA,,America/New_York,,,,
983,983,Aeropostale,PATRIOT PLACE AEROPOSTALE,42.087645,-71.265207,PATRIOT PLACE,FOXBORO,MA,02035,USA,,America/New_York,,,,
720,720,Aeropostale,WRENTHAM AEROPOSTALE,42.036217,-71.347273,WRENTHAM VILLAGE OUTLETS,WRENTHAM,MA,02093,USA,,America/New_York,,,,
1028,1028,Aeropostale,CAMBRIDGESIDE AEROPOSTALE,42.367048,-71.076299,CAMBRIDGESIDE GALLERIA,CAMBRIDGE,MA,02141,USA,,America/New_York,,,,
476,476,Aeropostale,SOUTH SHORE (MA) AEROPOST,42.220397,-71.027917,SOUTH SHORE MALL,BRAINTREE,MA,02184,USA,,America/New_York,,,,
759,759,Aeropostale,WESTGATE (MA) AEROPOSTALE,42.094434,-71.04977,WESTGATE MALL,BROCKTON,MA,02301,USA,,America/New_York,,,,
331,331,Aeropostale,HANOVER AEROPOSTALE,42.14714,-70.845362,HANOVER MALL,HANOVER,MA,02339,USA,,America/New_York,,,,
256,256,Aeropostale,INDEPENDENCE (MA) AEROPOS,41.968888,-70.7136,INDEPENDENCE MALL,KINGSTON,MA,02364,USA,,America/New_York,,,,
473,473,Aeropostale,ARSENAL AEROPOSTALE,42.363189,-71.16117,ARSENAL MALL,WATERTOWN,MA,02472,USA,,America/New_York,,,,
453,453,Aeropostale,CAPE COD AEROPOSTALE,41.668908,-70.296114,CAPE COD MALL,HYANNIS,MA,02601,USA,,America/New_York,,,,
287,287,Aeropostale,DARTMOUTH MALL AEROPOSTAL,41.640318,-70.991276,DARTMOUTH MALL,DARTMOUTH,MA,02747,USA,,America/New_York,,,,
70,70,Aeropostale,EMERALD SQ AEROPOSTALE,41.946015,-71.347098,EMERALD SQUARE  D322,NORTH ATTLEBORO,MA,02760,USA,,America/New_York,,,,
463,463,Aeropostale,SWANSEA AEROPOSTALE,41.758805,-71.218915,SWANSEA MALL,SWANSEA,MA,02777,USA,,America/New_York,,,,
151,151,Aeropostale,SILVER CITY AERO,41.867128,-71.050134,SILVER CITY GALLERIA MALL,TAUTON,MA,02780,USA,,America/New_York,,,,
962,962,Aeropostale,WARWICK AEROPOSTALE,41.726507,-71.479949,WARWICK MALL,WARWICK,RI,02886,USA,,America/New_York,,,,
208,208,Aeropostale,PROVIDENCE AEROPOSTALE,41.827751,-71.417768,PROVIDENCE PLACE     B307,PROVIDENCE,RI,02903,USA,,America/New_York,,,,
1107,1107,Aeropostale,MERRIMACK PREMIUM OUTLETS,42.872517,-71.490603,80 PREMIUM OUTLETS BLVD,MERRIMACK,NH,03054,USA,,America/New_York,,,,
236,236,Aeropostale,PHEASANT LANE AEROPOSTALE,42.70279,-71.440953,PHEASANT LANE MALL,NASHUA,NH,03060,USA,,America/New_York,,,,
379,379,Aeropostale,ROCKINGHAM PARK AEROPOSTA,42.764359,-71.230071,ROCKINGHAM PARK,SALEM,NH,03079,USA,,America/New_York,,,,
194,194,Aeropostale,MALL OF NH AEROPOSTALE,42.953856,-71.436198,MALL OF NEW HAMPSHIRE,MANCHESTER,NH,03103,USA,,America/New_York,,,,
907,907,Aeropostale,TILTON AEROPOSTALE,43.458875,-71.558919,TANGER OUTLETS TILTON,TILTON,NH,03276,USA,,America/New_York,,,,
370,370,Aeropostale,STEEPLEGATE AEROPOSTALE,43.22457,-71.488911,STEEPLEGATE MALL,CONCORD,NH,03301,USA,,America/New_York,,,,
176,176,Aeropostale,FOX RUN AEROPOSTALE,43.099962,-70.807917,FOX RUN MALL,NEWINGTON,NH,03801,USA,,America/New_York,,,,
790,790,Aeropostale,SETTLERS GREEN AEROPOSTAL,44.02227,-71.11422,SETTLERS GREEN,NORTH CONWAY,NH,03860,USA,,America/New_York,,,,
352,352,Aeropostale,NORTH CONWAY TANGER AERO,44.051388,-71.128332,TANGER OUTLET MALL,NORTH CONWAY,NH,03860,USA,,America/New_York,,,,
609,609,Aeropostale,KITTERY PREMIUM OUTLETS A,43.115184,-70.729514,KITTERY PREMIUM OUTLETS,KITTERY,ME,03904,USA,,America/New_York,,,,
313,313,Aeropostale,MAINE AEROPOSTALE,43.634909,-70.337344,MAINE MALL,SOUTH PORTLAND,ME,04106,USA,,America/New_York,,,,
1084,1084,Aeropostale,MARKETPLACE AUGUSTA AERO,44.34425,-69.78922,2 STEPHEN KING DRIVE,AUGUSTA,ME,04330,USA,,America/New_York,,,,
304,304,Aeropostale,BANGOR AEROPOSTALE,44.832816,-68.751362,BANGOR MALL,BANGOR,ME,04401,USA,,America/New_York,,,,
359,359,Aeropostale,BRLNGTON (VT) AEROPOSTALE,44.479017,-73.212609,BURLINGTON TOWN CENTER,BURLINGTON,VT,05402,USA,,America/New_York,,,,
378,378,Aeropostale,UNIVERSITY (VT) AEROPOSTA,44.465194,-73.181043,UNIVERSITY MALL,SOUTH BURLINGTON,VT,05403,USA,,America/New_York,,,,
1087,1087,Aeropostale,WESTFARMS AEROPOSTALE,41.72445,-72.76153,148 WESTFARMS MALL,FARMINGTON,CT,06032,USA,,America/New_York,,,,
192,192,Aeropostale,BUCKLAND AEROPOSTALE,41.809552,-72.547881,BUCKLAND MALL  ST 1138,MANCHESTER,CT,06040,USA,,America/New_York,,,,
455,455,Aeropostale,ENFIELD AEROPOSTALE,41.996918,-72.582381,ENFIELD SQUARE MALL,ENFIELD,CT,06082,USA,,America/New_York,,,,
195,195,Aeropostale,CRYSTAL MALL AEROPOSTALE,41.375396,-72.142074,CRYSTAL MALL,WATERFORD,CT,06385,USA,,America/New_York,,,,
712,712,Aeropostale,CLINTON AEROPOSTALE,41.292296,-72.530583,CLINTON CROSSING OUTLETS,CLINTON,CT,06413,USA,,America/New_York,,,,
209,209,Aeropostale,MERIDEN AEROPOSTALE,41.550322,-72.803704,MERIDEN SQUARE MALL,MERIDEN,CT,06451,USA,,America/New_York,,,,
348,348,Aeropostale,CONN POST AEROPOSTALE,41.236772,-73.038501,CONNECTICUT POST,MILFORD,CT,06460,USA,,America/New_York,,,,
90,90,Aeropostale,TRUMBULL AEROPOSTALE,41.230081,-73.219885,TRUMBULL SHOPPING CENTER,TRUMBULL,CT,06611,USA,,America/New_York,,,,
277,277,Aeropostale,BRASS MILL AEROPOSTALE,41.548102,-73.026935,BRASS MILL CENTER,WATERBURY,CT,06706,USA,,America/New_York,,,,
148,148,Aeropostale,DANBURY AEROPOSTALE,41.378577,-73.477054,DANBURY FAIR MALL,DANBURY,CT,06810,USA,,America/New_York,,,,
145,145,Aeropostale,STAMFORD AEROPOSTALE,41.053509,-73.536105,STAMFORD TOWN CENTER,STAMFORD,CT,06901,USA,,America/New_York,,,,
437,437,Aeropostale,MYRTLE BEACH TENT SALE,40.8745189,-74.2864823,MPD TRANSPORT - AERO  437,FAIRFIELD,NJ,07004,USA,,America/New_York,,,,
130,130,Aeropostale,LIVINGSTON AEROPOSTALE,40.775924,-74.356863,LIVINGSTON MALL,LIVINGSTON,NJ,07039,USA,,America/New_York,,,,
68,68,Aeropostale,HARMON COVE AERO KIDS,40.786618,-74.067421,HARMON COVE MALL,SECAUCUS,NJ,07094,USA,,America/New_York,,,,
12,12,Aeropostale,HARMON COVE AEROPOSTALE,40.778568,-74.070894,HARMON COVE MALL,SECAUCUS,NJ,07094,USA,,America/New_York,,,,
28,28,Aeropostale,WOODBRIDGE CENTER,40.554697,-74.301272,WOODBRIDGE CENTER 1325,WOODBRIDGE,NJ,07095,USA,,America/New_York,,,,
279,279,Aeropostale,JERSEY GARDENS AERO KIDS,40.6606503,-74.1698304,JERSEY GARDENS MALL,ELIZABETH,NJ,07201,USA,,America/New_York,,,,
224,224,Aeropostale,THE MILLS AT JERSEY GRDNS,40.66199,-74.175144,JERSEY GARDENS MALL,ELIZABETH,NJ,07201,USA,,America/New_York,,,,
20,20,Aeropostale,NEWPORT CENTRE,40.726074,-74.038897,NEWPORT CENTRE,JERSEY CITY,NJ,07310,USA,,America/New_York,,,,
430,430,Aeropostale,BOX SALE - MICHIGAN STATE,0,0,201 WILLOWBROOK DR,WAYNE,MI,07470,USA,,America/New_York,,,,
21,21,Aeropostale,AERO HOME OFFICE STORE,0,0,,WAYNE,NJ,07470,USA,,America/New_York,,,,
434,434,Aeropostale,BOX SALE - OHIO UNIVERSIT,0,0,201 WILLOWBROOK DR,WAYNE,OH,07470,USA,,America/New_York,,,,
14,14,Aeropostale,AERO DIV EXP (MEMO),0,0,,,,07470,USA,,America/New_York,,,,
4015,4015,Aeropostale,SAS PROJECT,0,0,201 WILLOWBROOK BLVD,WAYNE,NJ,07470,USA,,America/New_York,,,,
419,419,Aeropostale,BOX SALE - HOFSTRA UNIV.,0,0,201 WILLOWBROOK DR,WAYNE,NY,07470,USA,,America/New_York,,,,
412,412,Aeropostale,LAS AMERICAS BOX,0,0,201 WILLOWBROOK DR,WAYNE,CT,07470,USA,,America/New_York,,,,
1000,1000,Aeropostale,BLACKHAWK,40.884919,-74.257607,201 WILLOWBROOK BLVD,WAYNE,NJ,07470,USA,,America/New_York,,,,
422,422,Aeropostale,BOX SALE - WISCONSIN,0,0,201 WILLOWBROOK DR,WAYNE,WI,07470,USA,,America/Chicago,,,,
426,426,Aeropostale,BOX SALE - TOLEDO,0,0,201 WILLOWBROOK DR,WAYNE,OH,07470,USA,,America/New_York,,,,
427,427,Aeropostale,BOX SALE - MARSHALL UNIV,0,0,201 WILLOWBROOK DR,WAYNE,WV,07470,USA,,America/New_York,,,,
408,408,Aeropostale,BOX SALE - UNIV INDIANA,0,0,201 WILLOWBROOK DR,WAYNE,IN,07470,USA,,America/New_York,,,,
4010,4010,Aeropostale,LITTLE A PROJECT,0,0,,WAYNE,NJ,07470,USA,,America/New_York,,,,
435,435,Aeropostale,BOX SALE - LOUISVILLE,0,0,201 WILLOWBROOK DR,WAYNE,KY,07470,USA,,America/New_York,,,,
4012,4012,Aeropostale,LICENSING AERO,0,0,,WAYNE,NJ,07470,USA,,America/New_York,,,,
4045,4045,Aeropostale,CAP TO PA TO PO,0,0,,WAYNE,NJ,07470,USA,,America/New_York,,,,
417,417,Aeropostale,BOX SALE - CENTRAL MICH,0,0,201 WILLOWBROOK DR,WAYNE,MI,07470,USA,,America/New_York,,,,
411,411,Aeropostale,BOX SALE - BUFFALO,0,0,201 WILLOWBROOK DR,WAYNE,NY,07470,USA,,America/New_York,,,,
4013,4013,Aeropostale,CAD PROJECT,0,0,201 WILLOWBROOK BLVD,WAYNE,NJ,07470,USA,,America/New_York,,,,
410,410,Aeropostale,BOX SALE - TOWSON UNIV,0,0,201 WILLOWBROOK DR,WAYNE,MD,07470,USA,,America/New_York,,,,
416,416,Aeropostale,QUEENS BOX-ALL,0,0,201 WILLOWBROOK DR,WAYNE,IA,07470,USA,,America/Chicago,,,,
423,423,Aeropostale,BOX SALE-UNIV OF FLORIDA,0,0,201 WILLOWBROOK DR,WAYNE,FL,07470,USA,,America/New_York,,,,
431,431,Aeropostale,BOX SALE - N TEXAS UNIV.,0,0,201 WILLOWBROOK DR,WAYNE,TX,07470,USA,,America/Chicago,,,,
321,321,Aeropostale,MAN MALL BOX-ALT A,0,0,,WAYNE,OH,07470,USA,,America/New_York,,,,
4007,4007,Aeropostale,WAYNE OFFICE - 7TH FLOOR,0,0,201 WILLOWBROOK BLVD,WAYNE,NJ,07470,USA,,America/New_York,,,,
433,433,Aeropostale,BOX SALE - FLORIDA STATE,0,0,201 WILLOWBROOK DR,WAYNE,FL,07470,USA,,America/New_York,,,,
414,414,Aeropostale,J GARDENS-BOX ALT A,0,0,201 WILLOWBROOK DR,WAYNE,VA,07470,USA,,America/New_York,,,,
429,429,Aeropostale,BOX SALE - SW MISSOURI,0,0,201 WILLOWBROOK DR,WAYNE,MO,07470,USA,,America/Chicago,,,,
4510,4510,Aeropostale,AERO PUERTO RICO DIV EXP,0,0,201 WILLOWBROOK BLVD,WAYNE,NJ,07470,USA,,America/New_York,,,,
436,436,Aeropostale,BOX SALE - UNIV MINNESOTA,0,0,201 WILLOWBROOK DR,WAYNE,MN,07470,USA,,America/Chicago,,,,
100,100,Aeropostale,WILLOWBROOK AEROPOSTALE,40.891242,-74.261931,WILLOWBROOK MALL 1126,WAYNE,NJ,07470,USA,,America/New_York,,,,
428,428,Aeropostale,BOX SALE - RUTGERS BUSCH,0,0,201 WILLOWBROOK DR,WAYNE,NJ,07470,USA,,America/New_York,,,,
15,15,Aeropostale,AERO GC MGMT LLC,40.884919,-74.257607,201 WILLOWBROOK BLVD,WAYNE,NJ,07470,USA,,America/New_York,,,,
413,413,Aeropostale,FL MALL-BOX ALT B,0,0,201 WILLOWBROOK DR,WAYNE,VA,07470,USA,,America/New_York,,,,
4016,4016,Aeropostale,NETWORK SERVER ENVIRONMNT,0,0,201 WILLOWBROOK BLVD,WAYNE,NJ,07470,USA,,America/New_York,,,,
409,409,Aeropostale,ORLANDO BOX-ALT B,0,0,201 WILLOWBROOK DR,WAYNE,MI,07470,USA,,America/New_York,,,,
3010,3010,Aeropostale,AERO CANADA DIV EXP,40.884919,-74.257607,201 WILLOWBROOK BLVD,WAYNE,NJ,07470,CA,,America/New_York,,,,
420,420,Aeropostale,BOX SALE-WESTERN MICHIGAN,0,0,201 WILLOWBROOK DR,WAYNE,MI,07470,USA,,America/New_York,,,,
425,425,Aeropostale,BOX SALE - ALABAMA,0,0,201 WILLOWBROOK DR,WAYNE,AL,07470,USA,,America/Chicago,,,,
4008,4008,Aeropostale,WAYNE OFFICE - 8TH FLOOR,0,0,201 WILLOWBROOK BLVD,WAYNE,NJ,07470,USA,,America/New_York,,,,
432,432,Aeropostale,BOX SALE - INDIANA STATE,0,0,201 WILLOWBROOK DR,WAYNE,IN,07470,USA,,America/New_York,,,,
4017,4017,Aeropostale,HCR PROJECT,0,0,,WAYNE,NJ,07470,USA,,America/New_York,,,,
424,424,Aeropostale,BOX SALE - EASTERN MICH.,0,0,201 WILLOWBROOK DR,WAYNE,MI,07470,USA,,America/New_York,,,,
10,10,Aeropostale,AERO-BLACKHAWK GIFT CARDS,40.884919,-74.257607,201 WILLOWBROOK BLVD,WAYNE,NJ,07470,USA,,America/New_York,,,,
421,421,Aeropostale,BOX SALE - BOWLING GREEN,0,0,201 WILLOWBROOK DR,WAYNE,OH,07470,USA,,America/New_York,,,,
4014,4014,Aeropostale,IT INFRASTRUCTURE UPDATE,0,0,201 WILLOWBROOK BLVD,WAYNE,NJ,07470,USA,,America/New_York,,,,
438,438,Aeropostale,BOX SALE WESTERN KENTUCKY,0,0,201 WILLOWBROOK DR,WAYNE,KY,07470,USA,,America/New_York,,,,
407,407,Aeropostale,BETHANY POP-UP,0,0,35 CONTINENTAL DR,WAYNE,PA,07470,USA,,America/New_York,,,,
58,58,Aeropostale,GARDEN STATE AEROPOSTALE,40.918116,-74.076363,GARDEN STATE PLAZA SP L1A,PARAMUS,NJ,07652,USA,,America/New_York,,,,
93,93,Aeropostale,PARAMUS PARK AEROPOSTALE,40.957656,-74.070087,PARAMUS PARK MALL,PARAMUS,NJ,07652,USA,,America/New_York,,,,
134,134,Aeropostale,MONMOUTH AEROPOSTALE,40.287249,-74.051237,MONMOUTH MALL,EATONTOWN,NJ,07724,USA,,America/New_York,,,,
150,150,Aeropostale,FREEHOLD AEROPOSTALE,40.254792,-74.300108,FREEHOLD RACEWAY MALL,FREEHOLD,NJ,07728,USA,,America/New_York,,,,
1046,1046,Aeropostale,JERSEY SHORE AERO,40.224334,-74.092016,JERSEY SHORE PREM OUTLETS,TINTON FALLS,NJ,07753,USA,,America/New_York,,,,
31,31,Aeropostale,ROCKAWAY AEROPOSTALE,40.904638,-74.54648,ROCKAWAY TOWN SQUARE MALL,ROCKAWAY,NJ,07866,USA,,America/New_York,,,,
37,37,Aeropostale,CHERRY HILL AEROPOSTALE,39.940745,-75.025747,CHERRY HILL MALL,CHERRY HILL,NJ,08002,USA,,America/New_York,,,,
191,191,Aeropostale,ECHELON AEROPOSTALE,39.848701,-75.002229,ECHELON MALL,VOORHEES,NJ,08043,USA,,America/New_York,,,,
552,552,Aeropostale,MOORESTOWN AEROPOSTALE,39.946584,-74.962504,MOORESTOWN MALL,MOORESTOWN,NJ,08057,USA,,America/New_York,,,,
144,144,Aeropostale,DEPTFORD AEROPOSTALE,39.828407,-75.100342,DEPTFORD MALL,DEPTFORD,NJ,08096,USA,,America/New_York,,,,
49,49,Aeropostale,HAMILTON CTR AEROPOSTALE,39.454204,-74.643297,HAMILTON MALL,MAYS LANDING,NJ,08330,USA,,America/New_York,,,,
640,640,Aeropostale,CUMBERLAND (NJ) AEROPOSTA,39.43124,-75.04038,CUMBERLAND MALL,VINELAND,NJ,08360,USA,,America/New_York,,,,
740,740,Aeropostale,ATLANTIC CITY AEROPOSTALE,39.360842,-74.43676,ATLANTIC CITY CENTER,ATLANTIC CITY,NJ,08401,USA,,America/New_York,,,,
1051,1051,Aeropostale,JACKSON OUTLETS AERO,40.163109,-74.419926,537 MONMOUTH ROAD,JACKSON,NJ,08527,USA,,America/New_York,,,,
129,129,Aeropostale,QUAKERBRIDGE AEROPOSTALE,40.292117,-74.685508,QUAKERBRIDGE MALL I10,LAWRENCEVILLE,NJ,08608,USA,,America/New_York,,,,
131,131,Aeropostale,OCEAN COUNTY AEROPOSTALE,39.98015,-74.1822,OCEAN COUNTY MALL,TOMS RIVER,NJ,08753,USA,,America/New_York,,,,
23,23,Aeropostale,BRIDGEWATER COMMONS,40.588692,-74.619068,BRIDGEWATER COMMONS 2010,BRIDGEWATER,NJ,08807,USA,,America/New_York,,,,
395,395,Aeropostale,BRUNSWICK AEROPOSTALE,40.425839,-74.380931,BRUNSWICK SQUARE MALL,EAST BRUNSWICK,NJ,08816,USA,,America/New_York,,,,
154,154,Aeropostale,MENLO PARK AEROPOSTALE,40.544542,-74.336232,MENLO PARK MALL,EDISON,NJ,08837,USA,,America/New_York,,,,
391,391,Aeropostale,PHILLIPSBURG AEROPOSTALE,40.685551,-75.151247,PHILLIPSBURG MALL,PHILLIPSBURG,NJ,08865,USA,,America/New_York,,,,
323,323,Aeropostale,WHOLESALE-AERO,0,0,2 BRICK PLANT ROAD,SOUTH RIVER,NJ,08882,USA,,America/New_York,,,,
18,18,Aeropostale,ES VIRTUAL STORE PICKUPS,40.461111,-74.390514,2 BRICK PLANT ROAD,SOUTH RIVER,NJ,08882,USA,,America/New_York,,,,
5,5,Aeropostale,OUTLET RECVG/HOLD EAST,40.461111,-74.390514,2 BRICK PLANT ROAD,SOUTH RIVER,NJ,08882,USA,,America/New_York,,,,
402,402,Aeropostale,ALLOCATION HOLD #4,0,0,2 BRICK PLANT ROAD,SOUTH RIVER,NJ,08882,USA,,America/New_York,,,,
404,404,Aeropostale,ALLOCATION HOLD #6,0,0,2 BRICK PLANT ROAD,SOUTH RIVER,NJ,08882,USA,,America/New_York,,,,
329,329,Aeropostale,GREECE 2,0,0,2 BRICK PLANT ROAD,SOUTH RIVER,NJ,08882,USA,,America/New_York,,,,
2000,2000,Aeropostale,GLOBAL CONSOLIDATION,0,0,2 BRICK PLANT ROAD,SOUTH RIVER,NJ,08882,USA,,America/New_York,,,,
8,8,Aeropostale,STORE ADJUSTMENTS EAST,0,0,,,NJ,08882,USA,,America/New_York,,,,
322,322,Aeropostale,ECUADOR,0,0,2 BRICK PLANT ROAD,SOUTH RIVER,NJ,08882,USA,,America/New_York,,,,
9,9,Aeropostale,GSI ADJUSTMENTS,40.461111,-74.390514,2 BRICK PLANT ROAD,SOUTH RIVER,NJ,08882,USA,,America/New_York,,,,
403,403,Aeropostale,ALLOCATION HOLD #5,0,0,2 BRICK PLANT ROAD,SOUTH RIVER,NJ,08882,USA,,America/New_York,,,,
320,320,Aeropostale,ALLOCATION HOLD #11,0,0,2 BRICK PLANT ROAD,SOUTH RIVER,NJ,08882,USA,,America/New_York,,,,
327,327,Aeropostale,ALLOCATION HOLD #2,0,0,2 BRICK PLANT ROAD,SOUTH RIVER,NJ,08882,USA,,America/New_York,,,,
4,4,Aeropostale,AERO PRO RECEIVING EAST,40.461111,-74.390514,2 BRICK PLANT ROAD,SOUTH RIVER,NJ,08882,USA,,America/New_York,,,,
3,3,Aeropostale,AERO PRO ADJUST EAST,40.461111,-74.390514,2 BRICK PLANT ROAD,SOUTH RIVER,NJ,08882,USA,,America/New_York,,,,
1,1,Aeropostale,OUTLET BACKSTOCK EAST,40.461111,-74.390514,2 BRICK PLANT ROAD,SOUTH RIVER,NJ,08882,USA,,America/New_York,,,,
326,326,Aeropostale,ALLOCATION HOLD #1,0,0,2 BRICK PLANT ROAD,SOUTH RIVER,NJ,08882,USA,,America/New_York,,,,
401,401,Aeropostale,ALLOCATION HOLD #3,0,0,2 BRICK PLANT ROAD,SOUTH RIVER,NJ,08882,USA,,America/New_York,,,,
2,2,Aeropostale,AERO BACKSTOCK EAST,40.461111,-74.390514,2 BRICK PLANT ROAD,SOUTH RIVER,NJ,08882,USA,,America/New_York,,,,
405,405,Aeropostale,ECUADOR 2,0,0,2 BRICK PLANT ROAD,SOUTH RIVER,NJ,08882,USA,,America/New_York,,,,
6,6,Aeropostale,AERO HOLD EAST,40.461111,-74.390514,2 BRICK PLANT ROAD,SOUTH RIVER,NJ,08882,USA,,America/New_York,,,,
328,328,Aeropostale,ALLOCATION HOLD #10,0,0,2 BRICK PLANT ROAD,SOUTH RIVER,NJ,08882,USA,,America/New_York,,,,
1070,1070,Aeropostale,NORTH BRUNSWICK AERO,40.461074,-74.458353,SHOPPES AT NORTH BRUNSWCK,NORTH BRUNSWICK,NJ,08902,USA,,America/New_York,,,,
1064,1064,Aeropostale,34TH STREET AEROPOSTALE,40.748823,-73.985449,15 WEST 34TH STREET,NEW YORK,NY,10001,USA,,America/New_York,,,,
1596,1596,Aeropostale,MAN MALL BOX-ALT B,40.751646,-73.9847875,901 6TH AVE SPACE 162/164,NEW YORK,NY,10001,USA,,America/New_York,,,,
54,54,Aeropostale,33RD ST PLAZA AEROPOSTALE,40.749168,-73.988389,MANHATTAN MALL AEROPOSTAL,NEW YORK,NY,10001,USA,,America/New_York,,,,
1597,1597,Aeropostale,34TH STREET FLOORSET,40.749091,-73.985784,15 WEST 34TH STREET,NEW YORK,NY,10001,USA,,America/New_York,,,,
4001,4001,Aeropostale,NY OFFICE - 16TH FLOOR,0,0,112 WEST 34TH STREET,NEW YORK,NY,10018,USA,,America/New_York,,,,
4005,4005,Aeropostale,NY OFFICE - 25TH FLOOR,0,0,112 WEST 34TH STREET,NEW YORK,NY,10018,USA,,America/New_York,,,,
4002,4002,Aeropostale,NY OFFICE - 22TH FLOOR,0,0,112 WEST 34TH STREET,NEW YORK,NY,10018,USA,,America/New_York,,,,
4003,4003,Aeropostale,NY OFFICE - 23TH FLOOR,0,0,112 WEST 34TH STREET,NEW YORK,NY,10018,USA,,America/New_York,,,,
4004,4004,Aeropostale,NY OFFICE - 24TH FLOOR,0,0,112 WEST 34TH STREET,NEW YORK,NY,10018,USA,,America/New_York,,,,
4006,4006,Aeropostale,NY OFFICE - 26TH FLOOR,0,0,112 WEST 34TH STREET,NEW YORK,NY,10018,USA,,America/New_York,,,,
118,118,Aeropostale,86TH ST AEROPOSTALE,40.7788516,-73.9545322,169 EAST 86TH STREET,NEW YORK,NY,10028,USA,,America/New_York,,,,
1598,1598,Aeropostale,J GARDENS-BOX ALT B,40.838125,-73.941781,1515 BROADWAY,NEW YORK,NY,10032,USA,,America/New_York,,,,
1515,1515,Aeropostale,TIMES SQUARE AEROPOSTALE,40.757404,-73.985972,1515 BROADWAY,NEW YORK,NY,10032,USA,,America/New_York,,,,
3260,3260,Aeropostale,TIMES SQUARE PS,40.7573188,-73.9863539,1515 BROADWAY,NEW YORK,NY,10032,USA,,America/New_York,,,,
1599,1599,Aeropostale,QUEENS BOX-ALT B,40.838125,-73.941781,1515 BROADWAY,NEW YORK,NY,10032,USA,,America/New_York,,,,
30,30,Aeropostale,STATEN ISLAND MALL,40.581271,-74.16909,STATEN ISLAND MALL 247A,STATEN ISLAND,NY,10314,USA,,America/New_York,,,,
89,89,Aeropostale,JEFFERSON VALLEY AERO,41.326427,-73.807202,JEFFERSON VALLEY MALL,YORKTOWN HEIGHTS,NY,10598,USA,,America/New_York,,,,
136,136,Aeropostale,WHITE PLAINS AEROPOSTALE,41.032186,-73.769686,WHITE PLAINS MALL,WHITE PLAINS,NY,10601,USA,,America/New_York,,,,
117,117,Aeropostale,CROSS COUNTY AEROPOSTALE,40.929419,-73.852119,CROSS COUNTY SHOPPING CTR,YONKERS,NY,10704,USA,,America/New_York,,,,
739,739,Aeropostale,WOODBURY (NY) AEROPOSTALE,41.314734,-74.126754,WOODBURY COMMONS,CENTRAL VALLEY,NY,10917,USA,,America/New_York,,,,
139,139,Aeropostale,CRYSTAL RUN AEROPOSTALE,41.453292,-74.364996,GALLERIA AT CRYSTAL RUN,MIDDLETOWN,NY,10940,USA,,America/New_York,,,,
29,29,Aeropostale,NANUET AEROPOSTALE,41.095936,-74.018766,NANUET MALL,NANUET,NY,10954,USA,,America/New_York,,,,
184,184,Aeropostale,PALISADES AEROPOSTALE,41.09908,-73.95572,PALISADES MALL,WEST NYACK,NY,10994,USA,,America/New_York,,,,
1093,1093,Aeropostale,FULTON STREET AEROPOSTALE,40.690185,-73.984191,472-474 FULTON STREET,BROOKLYN,NY,11201,USA,,America/New_York,,,,
99,99,Aeropostale,KINGS PLAZA AEROPOSTALE,40.610003,-73.922047,KINGS PLAZA SHOPPING CNTR,BROOKLYN,NY,11234,USA,,America/New_York,,,,
981,981,Aeropostale,BAY TERRACE AEROPOSTALE,40.778206,-73.77759,212-01 26TH AVE&BELL BLVD,BAYSIDE,NY,11360,USA,,America/New_York,,,,
166,166,Aeropostale,QUEENS CENTER AEROPOSTALE,40.734127,-73.871655,QUEENS CENTER MALL,ELMHURST,NY,11373,USA,,America/New_York,,,,
1595,1595,Aeropostale,QUEENS BOX-ALT A,40.7345596,-73.8706326,90-15 QUEENS BLVD,ELMHURST,NY,11373,USA,,America/New_York,,,,
66,66,Aeropostale,ROOSEVELT FLD AEROPOSTALE,40.743112,-73.615358,ROOSEVELT FIELD MALL,GARDEN CITY,NY,11530,USA,,America/New_York,,,,
174,174,Aeropostale,GREEN ACRES AEROPOSTALE,40.66348,-73.71984,GREEN ACRES MALL,VALLEY STREAM,NY,11581,USA,,America/New_York,,,,
185,185,Aeropostale,SOUTH SHORE (NY) AEROPOST,40.73661,-73.24473,SOUTH SHORE MALL,BAY SHORE,NY,11706,USA,,America/New_York,,,,
132,132,Aeropostale,HUNTINGTON AEROPOSTALE,40.822301,-73.412244,WALT WHITMAN MALL,HUNTINGTON STATION,NY,11746,USA,,America/New_York,,,,
67,67,Aeropostale,SMITH HAVEN AEROPOSTALE,40.864627,-73.127901,SMITH HAVEN MALL,LAKE GROVE,NY,11755,USA,,America/New_York,,,,
52,52,Aeropostale,SUNRISE AEROPOSTALE,40.682332,-73.432507,SUNRISE MALL,MASSAPEQUA,NY,11758,USA,,America/New_York,,,,
677,677,Aeropostale,BROADWAY AEROPOSTALE,40.772304,-73.534302,BROADWAY MALL,HICKSVILLE,NY,11801,USA,,America/New_York,,,,
293,293,Aeropostale,TANGER OUTLET RH AEROPOST,40.917024,-72.71427,TANGER OUTLETS RIVERHEAD,RIVERHEAD,NY,11901,USA,,America/New_York,,,,
639,639,Aeropostale,CLIFTON PARK AEROPOSTALE,42.860014,-73.780794,CLIFTON PARK CENTER,CLIFTON PARK,NY,12065,USA,,America/New_York,,,,
295,295,Aeropostale,CROSSGATES AERO KIDS,42.689568,-73.850656,CROSSGATES MALL,ALBANY,NY,12203,USA,,America/New_York,,,,
87,87,Aeropostale,CROSSGATES AEROPOSTALE,42.695448,-73.850014,CROSSGATES MALL D206A,ALBANY,NY,12203,USA,,America/New_York,,,,
949,949,Aeropostale,COLONIE AEROPOSTALE,42.710137,-73.818123,COLONIE CENTER,ALBANY,NY,12205,USA,,America/New_York,,,,
383,383,Aeropostale,ROTTERDAM SQUARE AEROPSTA,42.810643,-73.989382,ROTTERDAM SQUARE,SCHENECTADY,NY,12306,USA,,America/New_York,,,,
178,178,Aeropostale,HUDSON VALLEY AEROPOSTALE,41.969112,-73.988768,HUDSON VALLEY MALL,KINGSTON,NY,12401,USA,,America/New_York,,,,
75,75,Aeropostale,POUGHKEEPSIE AEROPOSTALE,41.627184,-73.91695,POUGHKEEPSIE GALLERIA,POUGHKEEPSIE,NY,12601,USA,,America/New_York,,,,
710,710,Aeropostale,AVIATION AEROPOSTALE,43.328522,-73.676358,AVIATION MALL,QUEENSBURY,NY,12804,USA,,America/New_York,,,,
248,248,Aeropostale,WILTON AEROPOSTALE,43.105007,-73.741197,WILTON MALL,SARATOGA SPRINGS,NY,12866,USA,,America/New_York,,,,
372,372,Aeropostale,CHAMPLIAN AEROPOSTALE,44.702243,-73.491645,CHAMPLAIN MALL,PLATTSBURGH,NY,12901,USA,,America/New_York,,,,
769,769,Aeropostale,FINGER LAKES AEROPOSTALE,42.928028,-76.611751,FINGER LAKES MALL,AUBURN,NY,13022,USA,,America/New_York,,,,
167,167,Aeropostale,CLAY AEROPOSTALE,43.185888,-76.222098,GREAT NORTHERN MALL,CLAY,NY,13041,USA,,America/New_York,,,,
515,515,Aeropostale,WATERLOO AEROPOSTALE,42.954215,-76.92165,WATERLOO PREMIUM OUTLETS,WATERLOO,NY,13165,USA,,America/New_York,,,,
140,140,Aeropostale,DESTINY AEROPOSTALE,43.07055,-76.17013,PO BOX 9768,SYRACUSE,NY,13204,USA,,America/New_York,,,,
115,115,Aeropostale,SHOPPINGTOWN AERO,43.040493,-76.063092,SHOPPINGTOWN MALL,DEWITT,NY,13214,USA,,America/New_York,,,,
298,298,Aeropostale,CAROUSEL AERO KIDS,43.0669028,-76.1705598,CAROUSEL CENTER,SYRACUSE,NY,13290,USA,,America/New_York,,,,
232,232,Aeropostale,SANGERTOWN KIDS,43.082118,-75.324023,SANGERTOWN MALL,NEW HARTFORD,NY,13413,USA,,America/New_York,,,,
169,169,Aeropostale,SANGERTOWN AEROPOSTALE,43.083628,-75.321376,SANGERTOWN MALL,NEW HARTFORD,NY,13413,USA,,America/New_York,,,,
371,371,Aeropostale,SALMON RUN AEROPOSTALE,43.97961,-75.95546,SALMON RUN,WATERTOWN,NY,13601,USA,,America/New_York,,,,
305,305,Aeropostale,OAKDALE AEROPOSTALE,42.124481,-75.97207,OAKDALE MALL,JOHNSON CITY,NY,13790,USA,,America/New_York,,,,
312,312,Aeropostale,MCKINLEY AEROPOSTALE,42.784191,-78.811193,MCKINLEY MALL,BUFFALO,NY,14219,USA,,America/New_York,,,,
149,149,Aeropostale,EASTERN HILLS AEROPOSTALE,42.971102,-78.696832,EASTERN HILLS MALL,WILLIAMSVILLE,NY,14221,USA,,America/New_York,,,,
62,62,Aeropostale,WALDEN GALLERIA AEROPOSTA,42.908974,-78.762606,WALDEN GALLERIA,BUFFALO,NY,14225,USA,,America/New_York,,,,
296,296,Aeropostale,WALDEN AERO KIDS,42.91134,-78.763434,WALDEN GALLERIA,CHEEKTOWAGA,NY,14225,USA,,America/New_York,,,,
158,158,Aeropostale,BOULEVARD AEROPOSTALE,42.98785,-78.822572,BOULEVARD MALL,AMHERST,NY,14226,USA,,America/New_York,,,,
512,512,Aeropostale,NIAGARA FALLS AEROPOSTALE,43.097503,-78.975244,PRIME OUTLETS NIAGARA FAL,NIAGARA FALLS,NY,14304,USA,,America/New_York,,,,
57,57,Aeropostale,EASTVIEW AEROPOSTALE,43.029392,-77.449694,EASTVIEW MALL,VICTOR,NY,14564,USA,,America/New_York,,,,
32,32,Aeropostale,IRONDEQUOIT AEROPOSTALE,43.197681,-77.570711,IRONDEQUOIT MALL,ROCHESTER,NY,14622,USA,,America/New_York,,,,
59,59,Aeropostale,MARKETPLACE AEROPOSTALE,43.085931,-77.63743,MARKETPLACE MALL,ROCHESTER,NY,14623,USA,,America/New_York,,,,
34,34,Aeropostale,THE MALL AT GREECE RIDGE,43.205861,-77.694631,THE MALL AT GREECE RIDGE,ROCHESTER,NY,14626,USA,,America/New_York,,,,
674,674,Aeropostale,CHAUTAUQUA AEROPOSTALE,42.098962,-79.303517,CHAUTAUQUA MALL,LAKEWOOD,NY,14750,USA,,America/New_York,,,,
260,260,Aeropostale,ARNOT AEROPOSTALE,42.159709,-76.878195,ARNOT MALL,HORSEHEAD,NY,14844,USA,,America/New_York,,,,
177,177,Aeropostale,PYRAMID AEROPOSTALE,42.48374,-76.486681,PYRAMID MALL,ITHACA,NY,14850,USA,,America/New_York,,,,
237,237,Aeropostale,BEAVER VALLEY AEROPOSTALE,40.674898,-80.311765,BEAVER VALLEY MALL,MONACA,PA,15061,USA,,America/New_York,,,,
802,802,Aeropostale,PITTSBURGH AEROPOSTALE,40.573886,-79.791872,GALLERIA AT PITTS. MILLS,TARENTUM,PA,15084,USA,,America/New_York,,,,
1027,1027,Aeropostale,WATERFRONT AEROPOSTALE,40.40737,-79.91608,THE WATERFRONT,HOMESTEAD,PA,15120,USA,,America/New_York,,,,
205,205,Aeropostale,CENTURYIII AEROPOSTALE,40.338026,-79.937641,CENTURY III MALL,WEST MIFFLIN,PA,15123,USA,,America/New_York,,,,
105,105,Aeropostale,MONROEVILLE AEROPOSTALE,40.431524,-79.797248,MONROEVILLE MALL,MONROEVILLE,PA,15146,USA,,America/New_York,,,,
346,346,Aeropostale,ROBINSON AEROPOSTALE,40.453574,-80.160122,THE MALL AT ROBINSON,PITTSBURGH,PA,15205,USA,,America/New_York,,,,
35,35,Aeropostale,ROSS PARK AEROPOSTALE,40.546256,-80.005769,ROSS PARK MALL,PITTSBURGH,PA,15237,USA,,America/New_York,,,,
48,48,Aeropostale,SOUTH HILLS AEROPOSTALE,40.3447,-80.05784,SOUTH HILLS VILLAGE,UPPER ST. CLAIR,PA,15241,USA,,America/New_York,,,,
1047,1047,Aeropostale,TANGER AEROPOSTALE,40.214954,-80.209348,TANGER OUTLETS,WASHINGTON,PA,15301,USA,,America/New_York,,,,
56,56,Aeropostale,WSHNGTON CRWN AEROPOSTALE,40.160066,-80.276885,WASHINGTON CROWN CENTER,WASHINGTON,PA,15301,USA,,America/New_York,,,,
762,762,Aeropostale,UNIONTOWN AEROPOSTALE,39.905955,-79.749012,UNIONTOWN MALL,UNIONTOWN,PA,15401,USA,,America/New_York,,,,
171,171,Aeropostale,WESTMORELAND AEROPOSTALE,40.303256,-79.507701,WESTMORELAND MALL,GREENSBURG,PA,15601,USA,,America/New_York,,,,
645,645,Aeropostale,INDIANA AEROPOSTALE,40.606469,-79.182245,INDIANA MALL,INDIANA,PA,15701,USA,,America/New_York,,,,
381,381,Aeropostale,JOHNSTOWN AEROPO,40.29634,-78.8364,JOHNSTOWN GALLERIA,JOHNSTOWN,PA,15904,USA,,America/New_York,,,,
357,357,Aeropostale,CLEARVIEW AEROPOSTALE,40.894489,-79.906071,CLEARVIEW MALL,BUTLER,PA,16001,USA,,America/New_York,,,,
490,490,Aeropostale,GROVE CITY AEROPOSTALE,41.143421,-80.158234,GROVE CITY PREMIUM OUTLET,GROVE CITY,PA,16127,USA,,America/New_York,,,,
506,506,Aeropostale,SHENANGO AEROPOSTALE,41.23343,-80.449418,SHENANGO VALLEY MALL,HERMITAGE,PA,16148,USA,,America/New_York,,,,
571,571,Aeropostale,MILL CREEK AEROPOSTALE,42.06672,-80.09331,MILL CREEK MALL,ERIE,PA,16565,USA,,America/New_York,,,,
336,336,Aeropostale,LOGAN VALLEY AEROPOSTALE,40.467934,-78.410994,LOGAN VALLEY MALL,ALTOONA,PA,16602,USA,,America/New_York,,,,
360,360,Aeropostale,NITTANY AEROPOSTALE,40.831226,-77.801085,NITTANY MALL,STATE COLLEGE,PA,16801,USA,,America/New_York,,,,
337,337,Aeropostale,CAPITAL CITY AEROPOSTALE,40.221935,-76.931296,CAPITAL CITY MALL,CAMP HILL,PA,17011,USA,,America/New_York,,,,
870,870,Aeropostale,HERSHEY AEROPOSTALE,40.295573,-76.645414,OUTLETS AT HERSHEY,HERSHEY,PA,17033,USA,,America/New_York,,,,
234,234,Aeropostale,COLONIAL PARK AEROPOSTALE,40.302123,-76.816227,COLONIAL PARK,HARRISBURG,PA,17109,USA,,America/New_York,,,,
951,951,Aeropostale,HARRISBURG AEROPOSTALE,40.253705,-76.828586,HARRISBURG MALL,HARRISBURG,PA,17111,USA,,America/New_York,,,,
976,976,Aeropostale,CHAMBERSBURG AEROPOSTALE,39.957548,-77.572185,CHAMBERSBURG MALL,CHAMBERSBURG,PA,17201,USA,,America/New_York,,,,
583,583,Aeropostale,GETTYSBURG AEROPOSTALE,39.795551,-77.199611,GETTYSBURG VILLAGE FACTOR,GETTYSBURG,PA,17325,USA,,America/New_York,,,,
959,959,Aeropostale,NORTH HANOVER AEROPOSTALE,39.821974,-76.996803,NORTH HANOVER MALL,HANOVER,PA,17331,USA,,America/New_York,,,,
342,342,Aeropostale,YORK AEROPOSTALE,39.990699,-76.670661,YORK GALLERIA,YORK,PA,17402,USA,,America/New_York,,,,
102,102,Aeropostale,PARK CITY AEROPOSTALE,40.065939,-76.340189,PARK CITY CENTER,LANCASTER,PA,17601,USA,,America/New_York,,,,
709,709,Aeropostale,ROCKVALE AEROPOSTALE,0,0,ROCKVALE OUTLETS,LANCASTER,PA,17602,USA,,America/New_York,,,,
924,924,Aeropostale,LANCASTER AEROPOSTALE,40.024593,-76.220549,TANGER OUTLETS LANCASTER,LANCASTER,PA,17602,USA,,America/New_York,,,,
368,368,Aeropostale,SUSQUEHANNA AEROPOSTALE,40.825579,-76.845911,SUSQUEHANNA MALL,SELINSGROVE,PA,17870,USA,,America/New_York,,,,
752,752,Aeropostale,SAUCON VALLEY AEROPOSTALE,40.55827,-75.41009,SHOPS AT SAUCON VALLEY,BETHLEHEM,PA,18034,USA,,America/New_York,,,,
375,375,Aeropostale,PALMER PARK AEROPOSTALE,40.696242,-75.258245,PALMER PARK,EASTON,PA,18045,USA,,America/New_York,,,,
46,46,Aeropostale,LEHIGH VALLEY AEROPOSTALE,40.63053,-75.48347,244 LEHIGH VALLEY MALL,WHITEHALL,PA,18052,USA,,America/New_York,,,,
347,347,Aeropostale,STROUD AEROPOSTALE,40.988136,-75.223756,STROUD MALL,STROUDSBURG,PA,18360,USA,,America/New_York,,,,
722,722,Aeropostale,THE CROSSINGS AEROPOSTALE,41.050945,-75.313048,THE CROSSINGS PREMIUM OUT,TANNERSVILLE,PA,18372,USA,,America/New_York,,,,
78,78,Aeropostale,STEAM TOWN AEROPOSTALE,41.408057,-75.667154,MALL AT STEAMTOWN,SCRANTON,PA,18503,USA,,America/New_York,,,,
871,871,Aeropostale,MONTAGE AEROPOSTALE,41.363269,-75.676835,SHOPPES AT MONTAGE,MOOSIC,PA,18507,USA,,America/New_York,,,,
462,462,Aeropostale,VIEWMONT AEROPOSTALE,41.459979,-75.656567,VIEWMONT MALL,SCRANTON,PA,18508,USA,,America/New_York,,,,
519,519,Aeropostale,WYOMING VALLEY AEROPOSTAL,41.24779,-75.841958,WYOMING VALLEY MALL,WILKES-BARRE,PA,18702,USA,,America/New_York,,,,
482,482,Aeropostale,NESHAMINY AEROPOSTALE,40.136604,-74.956267,NESHAMINY MALL,BENSALEM,PA,19020,USA,,America/New_York,,,,
92,92,Aeropostale,OXFORD VALLEY AEROPOSTALE,40.17906,-74.880093,OXFORD VALLEY,LANGHORNE,PA,19047,USA,,America/New_York,,,,
60,60,Aeropostale,GRANITE RUN AEROPOSTALE,39.914239,-75.430918,GRANITE RUN MALL,MEDIA,PA,19063,USA,,America/New_York,,,,
294,294,Aeropostale,SPRINGFIELD (PA) AEROPOST,39.913474,-75.350805,SPRINGFIELD MALL,SPRINGFIELD,PA,19064,USA,,America/New_York,,,,
137,137,Aeropostale,WILLOW GROVE AEROPOSTALE,40.143464,-75.120616,WILLOW GROVE PARK MALL,WILLOW GROVE,PA,19090,USA,,America/New_York,,,,
1143,1143,Aeropostale,FASHION DISTRICT AEROPOST,0,0,FASHION DISTRICT PHILADEL,PHILADELPHIA,PA,19107,USA,,America/New_York,,,,
513,513,Aeropostale,FRANKLIN MILLS TEMP AERO,40.0900232,-74.9610043,1931 FRANKLIN MILLS CIRCL,PHILADELPHIA,PA,19154,USA,,America/New_York,,,,
11,11,Aeropostale,PHILADELPHIA MILLS,40.089805,-74.959014,PHILADELPHIA MILLS,PHILADELPHIA,PA,19154,USA,,America/New_York,,,,
267,267,Aeropostale,FRANKLIN MILLS AERO KIDS,40.089149,-74.960369,FRANKLIN MILLS MALL,PHILADELPHIA,PA,19154,USA,,America/New_York,,,,
193,193,Aeropostale,EXTON AEROPOSTALE,40.029732,-75.623631,EXTON SQUARE MALL,EXTON,PA,19341,USA,,America/New_York,,,,
128,128,Aeropostale,KING OF PRUSSIA AERO,40.0884801,-75.3941488,COURT AT KING OF PRUSSIA,KING OF PRUSSIA,PA,19406,USA,,America/New_York,,,,
351,351,Aeropostale,KNGOFPRUSSIA AEROPOSTALE,40.085403,-75.393336,THE PLAZA AT KING OF PRUS,KING OF PRUSSIA,PA,19406,USA,,America/New_York,,,,
135,135,Aeropostale,MONTGOMERY AEROPOSTALE,40.235608,-75.241756,MONTGOMERY MALL,NORTH WALES,PA,19454,USA,,America/New_York,,,,
222,222,Aeropostale,PLYMOUTH MEETING AERO,40.114834,-75.285327,PLYMOUTH MEETING MALL,PLYMOUTH MEETING,PA,19462,USA,,America/New_York,,,,
1023,1023,Aeropostale,PHILADELPHIA AEROPOSTALE,40.23455,-75.56818,PHILADELPHIA PREMIUM OUTL,POTTSTOWN,PA,19464,USA,,America/New_York,,,,
229,229,Aeropostale,COVENTRY MALL AEROPOSTALE,40.233353,-75.663678,COVENTRY MALL - STE C7/C8,POTTSTOWN,PA,19465,USA,,America/New_York,,,,
349,349,Aeropostale,BERKSHIRE (PA) AEROPOSTAL,40.338332,-75.972925,BERKSHIRE MALL,WYOMISSING,PA,19610,USA,,America/New_York,,,,
152,152,Aeropostale,CHRISTIANA AEROPOSTALE,39.676218,-75.650248,CHRISTIANA MALL,NEWARK,DE,19702,USA,,America/New_York,,,,
91,91,Aeropostale,CONCORD AEROPOSTALE,39.820451,-75.54725,CONCORD MALL,WILMINGTON,DE,19803,USA,,America/New_York,,,,
172,172,Aeropostale,DOVER AEROPOSTALE,39.19234,-75.54455,DOVER MALL,DOVER,DE,19901,USA,,America/New_York,,,,
493,493,Aeropostale,REHOBOTH BEACH AEROPOSTAL,38.735793,-75.14005,TANGER OUTLETS REHOBOTH B,REHOBOTH BEACH,DE,19971,USA,,America/New_York,,,,
276,276,Aeropostale,GEORGETOWN PK AEROPOSTALE,38.9055657,-77.0635664,GEORGETOWN PARK SUITE 354,WASHINGTON,DC,20007,USA,,America/New_York,,,,
903,903,Aeropostale,MANASSAS AEROPOSTALE,38.775063,-77.502997,MANASSAS MALL,MANASSAS,VA,20109,USA,,America/New_York,,,,
110,110,Aeropostale,DULLES AEROPOSTALE,39.032932,-77.420507,DULLES TOWN CENTER,DULLES,VA,20166,USA,,America/New_York,,,,
890,890,Aeropostale,LEESBURG AEROPOSTALE,39.109343,-77.535861,LEESBURG PREMIUM OUTLETS,LEESBURG,VA,20176,USA,,America/New_York,,,,
120,120,Aeropostale,ST. CHARLES AEROPOSTALE,38.619569,-76.925685,ST. CHARLES TOWNE CENTER,WALDORF,MD,20603,USA,,America/New_York,,,,
1118,1118,Aeropostale,TANGER NATIONAL HARBOR AE,38.814192,-76.998128,TANGER NATIONAL HARBOR,OXON HILL,MD,20745,USA,,America/New_York,,,,
718,718,Aeropostale,MONTGOMERY (MD) AEROPOSTA,39.022093,-77.146871,MONTGOMERY MALL,BETHESDA,MD,20817,USA,,America/New_York,,,,
591,591,Aeropostale,LAKEFOREST AEROPOSTALE,39.151036,-77.206063,LAKEFOREST MALL,GAITHERSBURG,MD,20877,USA,,America/New_York,,,,
614,614,Aeropostale,WHEATON AEROPOSTALE,39.039165,-77.053921,WHEATON MALL,SILVER SPRINGS,MD,20902,USA,,America/New_York,,,,
271,271,Aeropostale,HARFORD AEROPOSTALE,39.524007,-76.356724,HARFORD,BELAIR,MD,21014,USA,,America/New_York,,,,
153,153,Aeropostale,COLUMBIA AEROPOSTALE,39.216804,-76.857899,MALL AT COLUMBIA,COLUMBIA,MD,21044,USA,,America/New_York,,,,
751,751,Aeropostale,MARLEY STATION AEROPOSTAL,39.140341,-76.602768,MARLEY STATION,GLEN BURNIE,MD,21061,USA,,America/New_York,,,,
259,259,Aeropostale,ARUNDEL MILLS AEROPOSTALE,39.15482,-76.72275,ARUNDEL MILLS,HANOVER,MD,21076,USA,,America/New_York,,,,
186,186,Aeropostale,OWINGS MILLS AEROPOSTALE,39.406399,-76.790074,OWINGS MILLS MALL,OWINGS MILLS,MD,21117,USA,,America/New_York,,,,
628,628,Aeropostale,TOWSON AEROPOSTALE,39.404804,-76.601452,TOWSON TOWN CENTER,TOWSON,MD,21204,USA,,America/New_York,,,,
278,278,Aeropostale,WHITE MARSH AEROPOSTALE,39.375506,-76.472427,WHITE MARSH MALL,BALTIMORE,MD,21236,USA,,America/New_York,,,,
197,197,Aeropostale,ANNAPOLIS AEROPOSTALE,38.989167,-76.548437,ANNAPOLIS MALL,ANNAPOLIS,MD,21401,USA,,America/New_York,,,,
943,943,Aeropostale,COUNTRY CLUB AEROPOSTALE,39.631402,-78.835253,COUNTRY CLUB MALL,LAVALLE,MD,21502,USA,,America/New_York,,,,
891,891,Aeropostale,QUEENSTOWN AEROPOSTALE,38.982451,-76.15942,PRIME OUTLET QUEENSTOWN,QUEENSTOWN,MD,21658,USA,,America/New_York,,,,
578,578,Aeropostale,FRANCIS SCOTT KEY AEROPOS,39.384887,-77.409533,FRANCIS SCOTT KEY MALL,FREDERICK,MD,21703,USA,,America/New_York,,,,
491,491,Aeropostale,HAGERSTOWN AEROPOSTALE,39.60823,-77.733251,PRIME OUTLETS HAGERSTOWN,HAGERSTOWN,MD,21740,USA,,America/New_York,,,,
690,690,Aeropostale,VALLEY (MD) AEROPOSTALE,39.621212,-77.771223,VALLEY MALL,HAGERSTOWN,MD,21740,USA,,America/New_York,,,,
619,619,Aeropostale,SALISBURY AEROPOSTALE,38.402211,-75.569717,CENTER AT SALISBURY,SALISBURY,MD,21801,USA,,America/New_York,,,,
1015,1015,Aeropostale,OCEAN CITY AEROPOSTALE,38.336872,-75.10759,OCEAN CITY OUTLETS,OCEAN CITY,MD,21842,USA,,America/New_York,,,,
729,729,Aeropostale,FAIR OAKS AEROPOSTALE,38.861132,-77.35574,FAIR OAKS MALL,FAIRFAX,VA,22033,USA,,America/New_York,,,,
258,258,Aeropostale,TYSONS CORNER AEROPOSTALE,38.919207,-77.220515,TYSONS CORNER CENTER,MCLEAN,VA,22102,USA,,America/New_York,,,,
196,196,Aeropostale,SPRINGFIELD (VA) AEROPOST,0,0,SPRINGFIELD MALL,SPRINGFIELD,VA,22150,USA,,America/New_York,,,,
228,228,Aeropostale,POTOMAC MILLS AEROPOSTALE,38.64523,-77.299502,POTOMAC MILLS MALL,PRINCE WILLIAM,VA,22192,USA,,America/New_York,,,,
79,79,Aeropostale,PENTAGON AEROPOSTALE,38.864223,-77.059094,PENTAGON MALL,ARLINGTON,VA,22202,USA,,America/New_York,,,,
597,597,Aeropostale,SPOTSYLVANIA AEROPOSTALE,38.293682,-77.511547,SPOTSYLVANIA MALL,FREDERICKSBURG,VA,22407,USA,,America/New_York,,,,
387,387,Aeropostale,APPLE BLOSSOM AEROPOSTALE,39.163853,-78.163127,APPLE BLOSSOM MALL,WINCHESTER,VA,22601,USA,,America/New_York,,,,
494,494,Aeropostale,VALLEY (VA) AEROPOSTALE,38.429801,-78.842108,VALLEY MALL,HARRISONBURG,VA,22801,USA,,America/New_York,,,,
696,696,Aeropostale,CHARLOTTESVILLE AEROPOSTA,38.079005,-78.472241,CHARLOTTESVILLE FASION SQ,CHARLOTTESVILLE,VA,22901,USA,,America/New_York,,,,
520,520,Aeropostale,VIRGINIA CENTER AEROPOSTA,37.674456,-77.459668,VIRGINIA CENTER COMMONS,GLEN ALLEN,VA,23059,USA,,America/New_York,,,,
663,663,Aeropostale,WILLIAMSBURG VA AEROPOSTA,37.32079,-76.73617,PRIME OUTLETS WILLIAMSBUR,WILLIAMSBURG,VA,23188,USA,,America/New_York,,,,
3991,3991,Aeropostale,WILLIAMSBURG AERO PS,37.321441,-76.736285,PRIME OUTLETS WILLIAMSBUR,WILLIAMSBURG,VA,23188,USA,,America/New_York,,,,
658,658,Aeropostale,REGENCY (VA) AEROPOSTALE,0,0,REGENCY SQUARE,RICHMOND,VA,23229,USA,,America/New_York,,,,
952,952,Aeropostale,SHORT PUMP AEROPOSTALE,37.654414,-77.62354,SHORT PUMP TOWN CENTER,RICHMOND,VA,23233,USA,,America/New_York,,,,
164,164,Aeropostale,CHESTERFIELD (VA) AEROPOS,37.505522,-77.609233,CHESTERFIELD MALL,RICHMOND,VA,23235,USA,,America/New_York,,,,
680,680,Aeropostale,GREENBRIER AEROPOSTALE,36.776361,-76.230139,GREENBRIER MALL,CHEASAPEAKE,VA,23320,USA,,America/New_York,,,,
911,911,Aeropostale,CHESAPEAKE AEROPOSTALE,36.82314,-76.415291,CHESAPEAKE SQUARE,CHESAPEAKE,VA,23321,USA,,America/New_York,,,,
160,160,Aeropostale,LYNNHAVEN AEROPOSTALE,36.819988,-76.067012,LYNNHAVEN MALL,VIRGINIA BEACH,VA,23452,USA,,America/New_York,,,,
1140,1140,Aeropostale,NORFOLK AEROPOSTALE,0,0,NORFOLK PREMIUM OUTLETS,NORFOLK,VA,23502,USA,,America/New_York,,,,
766,766,Aeropostale,MACARTHUR AEROPOSTALE,36.849672,-76.289531,MACARTHUR CENTER,NORFOLK,VA,23510,USA,,America/New_York,,,,
536,536,Aeropostale,PATRICK HENRY AEROPOSTALE,37.112279,-76.499243,PATRICK HENRY MALL,NEWPORT NEWS,VA,23602,USA,,America/New_York,,,,
1062,1062,Aeropostale,THE PENINSULA AEROPOSTALE,37.044079,-76.393847,2507 MCMENAMIN ST.,HAMPTON,VA,23666,USA,,America/New_York,,,,
356,356,Aeropostale,STHPARK (VA) AEROPOSTALE,37.25449,-77.39606,SOUTHPARK MALL,COLONIAL HEIGHTS,VA,23834,USA,,America/New_York,,,,
310,310,Aeropostale,VALLEY VIEW AEROPOSTALE,37.30619,-79.96594,VALLEY VIEW MALL,ROANOKE,VA,24012,USA,,America/New_York,,,,
517,517,Aeropostale,NEW RIVER VALLEY AEROPOST,37.16655,-80.42942,NEW RIVER VALLEY MALL,CHRISTIANSBUG,VA,24073,USA,,America/New_York,,,,
343,343,Aeropostale,RIVER RIDGE AEROPOSTALE,37.367218,-79.174807,RIVER RIDGE MALL,LYNCHBURGH,VA,24502,USA,,America/New_York,,,,
779,779,Aeropostale,PIEDMONT AEROPOSTALE,36.595862,-79.422245,PIEDMONT MALL,DANVILLE,VA,24540,USA,,America/New_York,,,,
1091,1091,Aeropostale,MERCER MALL AEROPOSTALE,37.293454,-81.165657,261 MERCER MALL ROAD,BLUEFIELD,WV,24605,USA,,America/New_York,,,,
317,317,Aeropostale,CHARLESTON AEROPOSTALE,38.353719,-81.634842,CHARLESTON TOWN CENTER,CHARLESTON,WV,25389,USA,,America/New_York,,,,
532,532,Aeropostale,HUNTINGTON (WV) AEROPOSTA,38.422493,-82.262177,HUNTINGTON MALL,BARBOURSVILLE,WV,25504,USA,,America/New_York,,,,
763,763,Aeropostale,CROSSROADS (WV) AEROPOSTA,37.847226,-81.197539,CROSSROADS MALL,BRECKLEY,WV,25880,USA,,America/New_York,,,,
242,242,Aeropostale,GRAND CENTRAL AEROPOSTALE,39.302653,-81.549035,GRAND CENTRAL MALL,VIENNA,WV,26105,USA,,America/New_York,,,,
273,273,Aeropostale,MEADOWBROOK AEROPOSTALE,39.312028,-80.270947,MEADOWBROOK MALL,BRIDGEPORT,WV,26330,USA,,America/New_York,,,,
261,261,Aeropostale,MORGANTOWN AEROPOSTALE,39.627787,-79.995228,MORGANTOWN MALL,MORGANTOWN,WV,26501,USA,,America/New_York,,,,
206,206,Aeropostale,HANES AEROPOSTALE,36.073226,-80.298068,HANES MALL,WINSTON SALEM,NC,27103,USA,,America/New_York,,,,
901,901,Aeropostale,RANDOLPH AEROPOSTALE,35.700902,-79.788627,RANDOLPH MALL,ASHEBORO,NC,27203,USA,,America/New_York,,,,
1085,1085,Aeropostale,ALAMANCE CROSSING AERO,36.069934,-79.50943,1050 PIPER LANE,BURLINGTON,NC,27215,USA,,America/New_York,,,,
725,725,Aeropostale,COLONIAL (NC) AEROPOSTALE,0,0,COLONIAL MALL BURLINGTON,BURLINGTON,NC,27215,USA,,America/New_York,,,,
898,898,Aeropostale,OAK HOLLOW AEROPOSTALE,35.987726,-80.003627,OAK HOLLOW,HIGH POINT,NC,27262,USA,,America/New_York,,,,
269,269,Aeropostale,FOUR SEASONS AEROPOSTALE,36.038697,-79.835915,FOUR SEASONS TOWN CENTER,GREENSBORO,NC,27407,USA,,America/New_York,,,,
240,240,Aeropostale,CARY AEROPOSTALE,35.771543,-78.763211,CARY TOWN CENTER,CARY,NC,27511,USA,,America/New_York,,,,
618,618,Aeropostale,BERKELEY AEROPOSTALE,35.375728,-77.942487,BERKELEY MALL,GOLDSBORO,NC,27534,USA,,America/New_York,,,,
1016,1016,Aeropostale,CAROLINA (NC) AEROPOSTALE,35.511001,-78.308139,CAROLINA PREMIUM OUTLETS,SMITHFIELD,NC,27577,USA,,America/New_York,,,,
734,734,Aeropostale,CRABTREE AEROPOSTALE,35.841385,-78.678639,CRABTREE VALLEY MALL,RALEIGH,NC,27612,USA,,America/New_York,,,,
483,483,Aeropostale,TRIANGLE AEROPOSTALE,35.866379,-78.571464,TRIANGLE TOWN CENTER,RALEIGH,NC,27616,USA,,America/New_York,,,,
477,477,Aeropostale,NORTHGATE (NC) AEROPOSTAL,36.016942,-78.909238,NORTHGATE MALL,RALEIGH,NC,27701,USA,,America/New_York,,,,
814,814,Aeropostale,SOUTHPOINT AEROPOSTALE,35.903719,-78.938698,STREETS AT SOUTHPOINT,DURHAM,NC,27713,USA,,America/New_York,,,,
527,527,Aeropostale,GOLDEN EAST AEROPOSTALE,35.9718,-77.806931,GOLDEN EAST CROSSING,ROCKY MOUNT,NC,27804,USA,,America/New_York,,,,
285,285,Aeropostale,GREENVILLE MALL,35.586514,-77.369937,GREENVILLE MALL,GREENVILLE,NC,27858,USA,,America/New_York,,,,
1056,1056,Aeropostale,TANGER OUTLETS AERO,35.912252,-75.600898,TANGER OUTLETS NAGS HEAD,NAGS HEAD,NC,27959,USA,,America/New_York,,,,
553,553,Aeropostale,CAROLINA AEROPOSTALE,35.43817,-80.605083,CAROLINA MALL,CONCORD,NC,28025,USA,,America/New_York,,,,
280,280,Aeropostale,CONCORD MILLS AEROPOSTALE,35.371533,-80.71872,CONCORD MILLS,CONCORD,NC,28027,USA,,America/New_York,,,,
595,595,Aeropostale,EASTRIDGE (NC) AEROPOSTAL,35.265178,-81.151198,EASTRIDGE MALL,GASTONIA,NC,28054,USA,,America/New_York,,,,
487,487,Aeropostale,CAROLINA PLACE AEROPOSTAL,35.082631,-80.879556,CAROLINA PLACE,CHARLOTTE,NC,28134,USA,,America/New_York,,,,
987,987,Aeropostale,SOUTHPARK AEROPOSTALE,35.1511,-80.828785,SOUTHPARK MALL,CHARLOTTE,NC,28211,USA,,America/New_York,,,,
73,73,Aeropostale,EASTLAND (NC) AEROPOSTALE,35.20572,-80.75064,EASTLAND MALL,CHARLOTTE,NC,28212,USA,,America/New_York,,,,
749,749,Aeropostale,NORTHLAKE AEROPOSTALE,35.349827,-80.850117,NORTHLAKE MALL,CHARLOTTE,NC,28216,USA,,America/New_York,,,,
1132,1132,Aeropostale,CHARLOTTE PREMIUM OUTLETS,35.125483,-80.65485,5512 NEW FASHION WAY,CHARLOTTE,NC,28217,USA,,America/New_York,,,,
316,316,Aeropostale,CROSS CREEK AEROPOSTALE,35.07357,-78.963524,CROSS CREEK MALL,FAYETTEVILLE,NC,28303,USA,,America/New_York,,,,
283,283,Aeropostale,INDPNDNCE-NC AEROPOSTALE,34.216718,-77.905694,INDEPENDENCE MALL,WILMINGTON,NC,28403,USA,,America/New_York,,,,
623,623,Aeropostale,JACKSONVILLE AEROPOSTALE,34.765966,-77.380614,JACKSONVILLE MALL,JACKSONVILLE,NC,28546,USA,,America/New_York,,,,
290,290,Aeropostale,VALLEY HILLS AEROPOSTALE,35.706041,-81.303833,VALLEY HILLS MALL,HICKORY,NC,28602,USA,,America/New_York,,,,
1103,1103,Aeropostale,TANGER BLOWING ROCK,36.141145,-81.669656,278 SHOPPES ON THE PKWY,BLOWING ROCK,NC,28605,USA,,America/New_York,,,,
249,249,Aeropostale,ASHEVILLE AEROPOSTALE,35.584492,-82.526192,ASHEVILLE MALL,ASHEVILLE,NC,28805,USA,,America/New_York,,,,
833,833,Aeropostale,COLUMBIANA AEROPOSTALE,34.07472,-81.155633,COLUMBIANA MALL,COLUMBIA,SC,29212,USA,,America/New_York,,,,
875,875,Aeropostale,SANDHILL AEROPOSTALE,34.127298,-80.877361,VILLAGE AT SANDHILL,COLUMBIA,SC,29229,USA,,America/New_York,,,,
574,574,Aeropostale,WESTGATE (SC) AEROPOSTALE,34.938988,-81.991108,WESTGATE MALL,SPARTANBURG,SC,29301,USA,,America/New_York,,,,
581,581,Aeropostale,GAFFNEY AEROPOSTALE,35.082298,-81.709978,PRIME OUTLETS AT GAFFNEY,GAFFNEY,SC,29341,USA,,America/New_York,,,,
203,203,Aeropostale,NORTHWDS (SC) AEROPOSTALE,32.943403,-80.041579,NORTHWOODS MALL,CHARLESTON,SC,29406,USA,,America/New_York,,,,
758,758,Aeropostale,CITADEL (SC) AEROPOSTALE,0,0,CITADEL MALL,CHARLESTON,SC,29407,USA,,America/New_York,,,,
1099,1099,Aeropostale,TANGER OUTLET CHARLESTON,32.874156,-80.016181,4840 TANGER OUTLET BLVD,NORTH CHARLESTON,SC,29418,USA,,America/New_York,,,,
390,390,Aeropostale,MAGNOLIA AEROPOSTALE,34.189929,-79.83014,MAGNOLIA MALL,FLORENCE,SC,29501,USA,,America/New_York,,,,
896,896,Aeropostale,MYRTLE BEACH AEROPOSTALE,33.785317,-78.770642,TANGER OUTLET MYRTLE BEAC,MYRTLE BEACH,SC,29572,USA,,America/New_York,,,,
284,284,Aeropostale,COLONIAL MYRTLE BEACH,33.790879,-78.763936,COLONIAL MYRTLE BEACH,MYRTLE BEACH,SC,29572,USA,,America/New_York,,,,
611,611,Aeropostale,COASTAL GRAND AEROPOSTALE,33.703587,-78.92653,COASTAL GRAND MALL,MYRTLE BEACH,SC,29577,USA,,America/New_York,,,,
508,508,Aeropostale,MYRTLE BEACH OUTLET AEROP,33.750508,-78.959181,MYRTLE BEACH FACTORY STOR,MYRTLE BEACH,SC,29579,USA,,America/New_York,,,,
223,223,Aeropostale,HAYWOOD AEROPOSTALE,34.849856,-82.337611,HAYWOOD MALL,GREENVILLE,SC,29605,USA,,America/New_York,,,,
475,475,Aeropostale,ANDERSON AEROPOSTALE,34.538373,-82.667468,ANDERSON MALL,ANDERSON,SC,29621,USA,,America/New_York,,,,
756,756,Aeropostale,ROCK HILL AEROPOSTALE,34.941132,-80.963555,ROCK HILL GALLERIA,ROCK HILL,SC,29730,USA,,America/New_York,,,,
899,899,Aeropostale,AIKEN AEROPOSTALE,33.510159,-81.712535,AIKEN MALL,AIKEN,SC,29803,USA,,America/New_York,,,,
808,808,Aeropostale,HILTON HEAD AEROPOSTALE,0,0,HILTON HEAD OUTLETS II,BLUFFTON,SC,29910,USA,,America/New_York,,,,
560,560,Aeropostale,NORTHPOINT AEROPOSTALE,34.050794,-84.295075,NORTHPOINT MALL,ATLANTA,GA,30022,USA,,America/New_York,,,,
869,869,Aeropostale,STONECREST AEROPOSTALE,33.698134,-84.088813,MALL AT STONECREST,ATLANTA,GA,30038,USA,,America/New_York,,,,
969,969,Aeropostale,AVENUE FORSYTH AEROPOSTAL,34.154396,-84.178555,AVENUE FORSYTH,CUMMINGS,GA,30041,USA,,America/New_York,,,,
926,926,Aeropostale,AVE WEBB GIN AEROPOSTALE,33.897536,-84.006243,AVE WEBB GIN,SNELVILLE,GA,30078,USA,,America/New_York,,,,
84,84,Aeropostale,GWINNETT AEROPOSTALE,33.957228,-84.133396,GWINNETT PLACE,DULUTH,GA,30096,USA,,America/New_York,,,,
262,262,Aeropostale,ARBOR PLACE AEROPOSTALE,33.729491,-84.749371,ARBOR PLACE,DOUGLASVILLE,GA,30135,USA,,America/New_York,,,,
86,86,Aeropostale,COBB AEROPOSTALE,34.037172,-84.589182,TOWNE CENTER AT COBB,KENNESAW,GA,30144,USA,,America/New_York,,,,
786,786,Aeropostale,MT BERRY AEROPOSTALE,34.273612,-85.181776,MT BERRY SQUARE,ROME,GA,30165,USA,,America/New_York,,,,
1111,1111,Aeropostale,SHOPPES AT ATLANTA,34.119763,-84.518527,915 RIDGEWALK PARKWAY,WOODSTOCK,GA,30188,USA,,America/New_York,,,,
824,824,Aeropostale,LOCUST GROVE AEROPOSTALE,33.351725,-84.122374,LOCUST GROVE,LOCUS GROVE,GA,30248,USA,,America/New_York,,,,
570,570,Aeropostale,SOUTHLAKE (GA) AEROPOSTAL,33.573208,-84.350815,SOUTHLAKE MALL,ATLANTA,GA,30260,USA,,America/New_York,,,,
1012,1012,Aeropostale,ASHLEY PARK AEROPOSTALE,33.388769,-84.762657,ASHLEY PARK,NEWNAN,GA,30265,USA,,America/New_York,,,,
1072,1072,Aeropostale,LENOX SQUARE AEROPOSTALE,33.8489,-84.364758,LENOX SQUARE,ATLANTA,GA,30326,USA,,America/New_York,,,,
81,81,Aeropostale,CUMBERLAND (GA) AEROPOSTA,33.881743,-84.470084,CUMBERLAND MALL,ATLANTA,GA,30339,USA,,America/New_York,,,,
947,947,Aeropostale,CUMBERLAND AEROPOSTALE,33.88122,-84.471904,CUMBERLAND MALL,ATLANTA,GA,30339,USA,,America/New_York,,,,
1092,1092,Aeropostale,PERIMETER AEROPOSTALE,33.922331,-84.338749,4400 ASHFORD DUNWOODY RD,ATLANTA,GA,30346,USA,,America/New_York,,,,
363,363,Aeropostale,MALLOFGEORGIA AEROPOSTALE,34.068917,-83.985337,MALL OF GEORGIA,BUFORD,GA,30519,USA,,America/New_York,,,,
302,302,Aeropostale,COMMERCE TANGER OUTLET,34.255276,-83.466619,TANGER FACTORY OUTLETS,COMMERCE,GA,30529,USA,,America/New_York,,,,
859,859,Aeropostale,COMMERCE II AEROPOSTALE,34.250951,-83.471353,COMMERCE II,COMMERCE,GA,30529,USA,,America/New_York,,,,
800,800,Aeropostale,NORTH GEORGIA AEROPOSTALE,34.356283,-84.045847,NORTH GEORGIA PREMIUM OUT,DAWSONVILLE,GA,30534,USA,,America/New_York,,,,
441,441,Aeropostale,GEORGIA SQUARE AEROPOSTAL,33.940881,-83.466726,GEORGIA SQUARE MALL,ATHENS,GA,30606,USA,,America/New_York,,,,
797,797,Aeropostale,WALNUT SQUARE AEROPOSTALE,34.761608,-84.933187,WALNUT SQUARE MALL,DALTON,GA,30721,USA,,America/New_York,,,,
282,282,Aeropostale,AUGUSTA AEROPOSTALE,33.467308,-82.080688,AUGUSTA MALL,AUGUSTA,GA,30909,USA,,America/New_York,,,,
897,897,Aeropostale,CENTERVILLE AEROPOSTALE,32.618411,-83.685635,GALLERIA CENTERVILLE,CENTERVILLE,GA,31028,USA,,America/New_York,,,,
264,264,Aeropostale,MACON AEROPOSTALE,32.815896,-83.696258,COLONIAL MALL AT MACON,MACON,GA,31206,USA,,America/New_York,,,,
966,966,Aeropostale,RIVER CROSSING AEROPOSTAL,32.929319,-83.713837,SHOPPES AT RIVER CROSSING,MACON,GA,31210,USA,,America/New_York,,,,
1138,1138,Aeropostale,SAVANNAH OUTLETS,0,0,200 TANGER OUTLET BLVD,POOLER,GA,31322,USA,,America/New_York,,,,
569,569,Aeropostale,OGLETHORPE AEROPOSTALE,32.005633,-81.11658,OGLETHORPE MALL,SAVANNAH,GA,31406,USA,,America/New_York,,,,
844,844,Aeropostale,GLYNN PLACE AEROPOSTALE,31.219276,-81.488541,COLONIAL MALL GLYNN PLACE,BRUNSWICK,GA,31525,USA,,America/New_York,,,,
576,576,Aeropostale,COLONIAL (GA) AEROPOSTALE,30.841929,-83.318723,COLONIAL MALL VALDOSTA,VALDOSTA,GA,31601,USA,,America/New_York,,,,
755,755,Aeropostale,ALBANY AEROPOSTALE,31.614363,-84.217096,ALBANY MALL,ALBANY,GA,31707,USA,,America/New_York,,,,
738,738,Aeropostale,PEACHTREE AEROPOSTALE,32.508356,-84.93725,PEACHTREE MALL,COLUMBUS,GA,31909,USA,,America/New_York,,,,
691,691,Aeropostale,ORANGE PARK AEROPOSTALE,30.18684,-81.735858,ORANGE PARK,ORANGE PARK,FL,32073,USA,,America/New_York,,,,
615,615,Aeropostale,ST AUGUSTINE AEROPOSTALE,29.922791,-81.418033,ST AUGUSTINE PREMIUM OUT.,ST AUGUSTINE,FL,32092,USA,,America/New_York,,,,
3983,3983,Aeropostale,ST AUGUSTINE AERO - PS,29.9204975,-81.4163303,ST AUGUSTINE PREM OUTLETS,ST AUGUSTINE,FL,32092,USA,,America/New_York,,,,
805,805,Aeropostale,VOLUSIA AEROPOSTALE,29.194594,-81.062661,VOLUSIA MALL,DAYTONA BEACH,FL,32114,USA,,America/New_York,,,,
822,822,Aeropostale,REGENCY SQUARE AEROPOSTAL,30.321681,-81.550719,REGENCY SQUARE,JACKSONVILLE,FL,32225,USA,,America/New_York,,,,
1026,1026,Aeropostale,STJOHNS AEROPOSTALE,30.258093,-81.526288,STJOHNS TOWN CENTER,JACKSONVILLE,FL,32246,USA,,America/New_York,,,,
698,698,Aeropostale,THE AVENUES AEROPOSTALE,30.184697,-81.551804,THE AVENUES,JACKSONVILLE,FL,32256,USA,,America/New_York,,,,
263,263,Aeropostale,GOVNORS SQ (FL) AEROPOSTA,30.434315,-84.25462,GOVERNOR'S SQUARE,TALLAHASSEE,FL,32301,USA,,America/New_York,,,,
1031,1031,Aeropostale,TALLAHASSEE AEROPOSTALE,30.475857,-84.290141,TALLAHASSEE MALL,TALLAHASSEE,FL,32303,USA,,America/New_York,,,,
634,634,Aeropostale,PANAMA CITY AEROPOSTALE,30.187731,-85.64999,PANAMA CITY MALL,PANAMA CITY,FL,32405,USA,,America/New_York,,,,
972,972,Aeropostale,PIER PARK AEROPOSTALE,30.220193,-85.869917,PIER PARK,PANAMA CITY BEACH,FL,32413,USA,,America/New_York,,,,
555,555,Aeropostale,CORDOVA AEROPOSTALE,30.475586,-87.207128,CORDOVA MALL,PENSACOLA,FL,32504,USA,,America/New_York,,,,
3985,3985,Aeropostale,SILVER SANDS AERO - PS,30.387075,-86.444198,SILVER SANDS FACTORY OUTL,DESTIN,FL,32541,USA,,America/New_York,,,,
601,601,Aeropostale,SILVER SANDS AEROPOSTALE,30.378586,-86.352166,SILVER SANDS FACTORY OUTL,MIRAMAR BEACH,FL,32550,USA,,America/New_York,,,,
445,445,Aeropostale,SANTA ROSA (FL) AEROPOSTA,30.414927,-86.658633,SANTA ROSA MALL,MARY ESTHER,FL,32569,USA,,America/New_York,,,,
484,484,Aeropostale,THE OAKS AEROPOSTALE,29.659552,-82.411337,THE OAKS MALL,GAINSVILLE,FL,32605,USA,,America/New_York,,,,
561,561,Aeropostale,ALTAMONTE AEROPOSTALE,28.66361,-81.379135,ALTAMONTE MALL,ORLANDO,FL,32701,USA,,America/New_York,,,,
162,162,Aeropostale,SEMINIOLE AEROPOSTALE,28.803736,-81.340867,SEMINOLE TOWNE CENTER,SANFORD,FL,32771,USA,,America/New_York,,,,
608,608,Aeropostale,FLORIDA AEROPOSTALE,28.449756,-81.400839,FLORIDA MALL,ORLANDO,FL,32809,USA,,America/New_York,,,,
921,921,Aeropostale,PRIME ORLANDO AEROPOSTALE,28.474175,-81.449452,PRIME OUTLETS ORLANDO,ORLANDO,FL,32819,USA,,America/New_York,,,,
514,514,Aeropostale,BELZ AEROPOSTALE,28.472153,-81.450068,BELZ DESIGNER OUTLET,ORLANDO,FL,32819,USA,,America/New_York,,,,
1137,1137,Aeropostale,ORLANDO VINELAND PREM OUT,0,0,ORLANDO VINELAND PREM OUT,ORLANDO,FL,32821,USA,,America/New_York,,,,
885,885,Aeropostale,BUENA VISTA AEROPOSTALE,28.348918,-81.489185,LAKE BUENA VISTA FACTORY,ORLANDO,FL,32821,USA,,America/New_York,,,,
862,862,Aeropostale,WATERFORD AEROPOSTALE,28.554246,-81.206052,WATERFORD LAKES TOWN CTR,ORLANDO,FL,32828,USA,,America/New_York,,,,
679,679,Aeropostale,MELBOURNE AEROPOSTALE,28.078949,-80.649289,MELBOURNE MALL,MELBOURNE,FL,32904,USA,,America/New_York,,,,
868,868,Aeropostale,MERRITT AEROPOSTALE,28.357092,-80.685444,MERRITT SQUARE,MERRITT ISLAND,FL,32952,USA,,America/New_York,,,,
1135,1135,Aeropostale,VERO BEACH AEROPOSTALE,0,0,VERO BEACH FASHION OUTLET,VERO BEACH,FL,32966,USA,,America/New_York,,,,
775,775,Aeropostale,INDIAN RIVER AEROPOSTALE,27.639135,-80.454109,INDIAN RIVER MALL,VERO BEACH,FL,32966,USA,,America/New_York,,,,
1088,1088,Aeropostale,WESTLAND MALL AEROPOSTALE,25.866672,-80.317278,1685 W. 49TH ST.,HIALEAH,FL,33012,USA,,America/New_York,,,,
908,908,Aeropostale,PEMBROKE AEROPOSTALE,26.007848,-80.300839,PEMBROKE LAKES MALL,PEMBROKE PINES,FL,33026,USA,,America/New_York,,,,
1086,1086,Aeropostale,PRIME OUTLETS FLORIDA CTY,25.447997,-80.472709,250 EAST PALM DR.,FLORIDA CITY,FL,33034,USA,,America/New_York,,,,
764,764,Aeropostale,CORAL SQUARE AEROPOSTALE,26.239931,-80.252384,CORAL SQUARE MALL,CORAL SPRINGS,FL,33071,USA,,America/New_York,,,,
832,832,Aeropostale,SUNSET AEROPOSTALE,25.704454,-80.285501,SHOPS AT SUNSET PLACE,MIAMI,FL,33143,USA,,America/New_York,,,,
51,51,Aeropostale,DADELAND AEROPOSTALE,25.688795,-80.311517,DADELAND MALL,MIAMI,FL,33156,USA,,America/New_York,,,,
787,787,Aeropostale,DOLPHIN AEROPOSTALE,25.782773,-80.376825,DOLPHIN MALL,MIAMI,FL,33172,USA,,America/New_York,,,,
173,173,Aeropostale,MIAMI INTERNAT'L AERO,26.063493,-80.240795,MIAMI INTERNAT'L MALL,MIAMI,FL,33172,USA,,America/New_York,,,,
1075,1075,Aeropostale,THE FALLS AEROPOSTALE,25.646393,-80.337857,8888 SW 136TH ST,MIAMI,FL,33176,USA,,America/New_York,,,,
108,108,Aeropostale,AVENTURA AEROPOSTALE,25.956035,-80.146758,AVENTURA MALL,NO MIAMI,FL,33180,USA,,America/New_York,,,,
1104,1104,Aeropostale,SOUTHLAND MALL,25.576357,-80.371632,20505 S DIXIE HIGHWAY,CUTLER BAY,FL,33189,USA,,America/New_York,,,,
699,699,Aeropostale,SAWGRASS AEROPOSTALE,26.144876,-80.323938,SAWGRASS MILLS,SUNRISE,FL,33323,USA,,America/New_York,,,,
45,45,Aeropostale,PLANTATION AEROPOSTALE,25.809782,-80.1315308,FASHION MALL - SPACE L4,PLANTATION,FL,33324,USA,,America/New_York,,,,
977,977,Aeropostale,BROWARD AEROPOSTALE,26.120742,-80.254614,BROWARD MALL,PLANTATION,FL,33388,USA,,America/New_York,,,,
1142,1142,Aeropostale,PALM BEACH AEROPOSTALE,0,0,PALM BEACH OUTLETS,WEST PALM BEACH,FL,33401,USA,,America/New_York,,,,
1061,1061,Aeropostale,THE GARDENS MALL AERO,26.84523,-80.08558,3101 PGA BLVD.,PALM BEACH,FL,33410,USA,,America/New_York,,,,
665,665,Aeropostale,WELLINGTON AEROPOSTALE,26.650947,-80.207493,MALL AT WELLINGTON GREEN,PALM BEACH,FL,33414,USA,,America/New_York,,,,
708,708,Aeropostale,BOYNTON BEACH AEROPOSTALE,26.534978,-80.090716,BOYNTON BEACH MALL,BOYNTON BEACH,FL,33426,USA,,America/New_York,,,,
1090,1090,Aeropostale,TOWN CENTER AT BOCA RATON,26.368584,-80.137032,6000 WEST GLADES ROAD,BOCA RATON,FL,33431,USA,,America/New_York,,,,
621,621,Aeropostale,BRANDON AEROPOSTALE,27.92906,-82.32317,BRANDON TOWN CENTER,BRANDON,FL,33511,USA,,America/New_York,,,,
923,923,Aeropostale,WIREGRASS (FL) AEROPOSTAL,28.188381,-82.3499,SHOPS AT WIREGRASS,WESLEY CHAPEL,FL,33543,USA,,America/New_York,,,,
884,884,Aeropostale,INTERNATIONAL AEROPOSTALE,27.960963,-82.523897,INTERNATIONAL PLAZA,TAMPA,FL,33607,USA,,America/New_York,,,,
975,975,Aeropostale,WEST SHORE AEROPOSTALE,27.944878,-82.527389,WEST SHORE PLAZA,TAMPA,FL,33609,USA,,America/New_York,,,,
605,605,Aeropostale,UNIVERSITY (FL) AEROPOSTA,28.055856,-82.434615,UNIVERSITY MALL,TAMPA,FL,33612,USA,,America/New_York,,,,
625,625,Aeropostale,CITRUS PARK AEROPOSTALE,28.06675,-82.57652,CITRUS PARK TOWN CENTER,TAMPA,FL,33625,USA,,America/New_York,,,,
603,603,Aeropostale,TYRONE SQ AEROPOSTALE,27.791808,-82.733944,TYRONE SQUARE,ST PETERSBURG,FL,33710,USA,,America/New_York,,,,
545,545,Aeropostale,COUNTRY SIDE AEROPOSTALE,28.017749,-82.737598,COUNTRY SIDE MALL,CLEARWATER,FL,33761,USA,,America/New_York,,,,
456,456,Aeropostale,LAKELAND AEROPOSTALE,28.091756,-81.974018,LAKELAND MALL,LAKELAND,FL,33809,USA,,America/New_York,,,,
917,917,Aeropostale,EAGLE RIDGE AEROPOSTALE,27.95295,-81.61418,EAGLE RIDGE,LAKE WALES,FL,33859,USA,,America/New_York,,,,
127,127,Aeropostale,EDISON AEROPOSTALE,26.601901,-81.871759,EDISON MALL,FT. MYERS,FL,33901,USA,,America/New_York,,,,
3984,3984,Aeropostale,MIROMAR AEROPOSTALE PS,26.435945,-81.775835,MIROMAR OUTLETS,ESTERO,FL,33928,USA,,America/New_York,,,,
873,873,Aeropostale,COCONUT POINT AEROPOSTALE,26.402948,-81.806888,COCONUT POINT,ESTERO,FL,33928,USA,,America/New_York,,,,
881,881,Aeropostale,MIROMAR OUTLET AEROPOSTAL,26.435205,-81.772276,MIROMAR OUTLET,FT MEYERS,FL,33928,USA,,America/New_York,,,,
819,819,Aeropostale,PORT CHARLOTTE AEROPOSTAL,27.01139,-82.14345,PORT CHARLOTTE TOWN CTR,PORT CHARLOTTE,FL,33948,USA,,America/New_York,,,,
684,684,Aeropostale,COASTLAND AEROPOSTALE,26.170685,-81.799473,COASTLAND MALL,NAPLES,FL,34102,USA,,America/New_York,,,,
721,721,Aeropostale,DESOTO AEROPOSTALE,27.467257,-82.565289,DESOTO SQUARE,BRADENTON,FL,34205,USA,,America/New_York,,,,
3982,3982,Aeropostale,ELLENTON AEROPOSTALE PS,27.5362636,-82.5081396,PRIME OUTLETS AT ELLENTON,ELLENTON,FL,34222,USA,,America/New_York,,,,
580,580,Aeropostale,ELLENTON AEROPOSTALE,27.536092,-82.506645,PRIME OUTLETS ELLENTON,ELLENTON,FL,34222,USA,,America/New_York,,,,
528,528,Aeropostale,SARASOTA AEROPOSTALE,27.23145,-82.49549,SARASOTA SQUARE,SARASOTA,FL,34238,USA,,America/New_York,,,,
642,642,Aeropostale,PADDOCK AEROPOSTALE,29.160179,-82.174929,PADDOCK MALL,OCALA,FL,34474,USA,,America/New_York,,,,
874,874,Aeropostale,GULFVIEW AEROPOSTALE,28.293437,-82.709637,GULFVIEW SQUARE,PORT RICHEY,FL,34668,USA,,America/New_York,,,,
934,934,Aeropostale,THE LOOP AEROPOSTALE,28.345153,-81.420051,THE LOOP,KISSIMMEE,FL,34741,USA,,America/New_York,,,,
835,835,Aeropostale,WEST OAKS FL AEROPOSTALE,28.551887,-81.514987,WEST OAKS MALL,OCOEE,FL,34761,USA,,America/New_York,,,,
682,682,Aeropostale,TREASURE COAST AEROPOSTAL,27.24515,-80.27243,TREASURE COAST MALL,JENSEN BEACH,FL,34957,USA,,America/New_York,,,,
1098,1098,Aeropostale,SHOPS AT GRAND RIVER AERO,33.548686,-86.596208,6200 GRAND RIVER BLVD E,BIRMINGHAM,AL,35094,USA,,America/Chicago,,,,
656,656,Aeropostale,BROOKWOOD AEROPOSTALE,33.472269,-86.76867,COLONIAL BROOKWOOD VILL.,HOMEWOOD,AL,35209,USA,,America/Chicago,,,,
889,889,Aeropostale,TUTWILER FARM AEROPOSTALE,33.605894,-86.641759,PINNACLE AT TUTWILER FARM,TRUSSVILLE,AL,35235,USA,,America/Chicago,,,,
291,291,Aeropostale,RIVERCHASE AEROPOSTALE,33.380108,-86.806879,RIVERCHASE GALLERIA,HOOVER,AL,35244,USA,,America/Chicago,,,,
272,272,Aeropostale,UNIVERSITY (AL) AEROPOSTA,33.194137,-87.52594,UNIVERSITY MALL,TUSCALOOSA,AL,35405,USA,,America/Chicago,,,,
655,655,Aeropostale,DECATUR AEROPOSTALE,34.5745,-87.01721,COLONIAL MALL DECATUR,DECATUR,AL,35601,USA,,America/Chicago,,,,
594,594,Aeropostale,REGENCY SQ AEROPOSTALE,34.836806,-87.63163,REGENCY SQUARE MALL,FLORENCE,AL,35630,USA,,America/Chicago,,,,
577,577,Aeropostale,PARKWAY PLACE AEROPOSTALE,34.706991,-86.589071,PARKWAY PLACE,HUNTSVILLE,AL,35801,USA,,America/Chicago,,,,
382,382,Aeropostale,MADISON SQUARE AEROPOSTAL,34.740629,-86.665282,MADISON SQUARE MALL,HUNTSVILLE,AL,35806,USA,,America/Chicago,,,,
233,233,Aeropostale,GADSDEN AEROPOSTALE,33.997585,-86.004537,COLONIAL MALL GADSDEN,GADSDEN,AL,35901,USA,,America/Chicago,,,,
559,559,Aeropostale,EASTDALE AEROPOSTALE,32.387657,-86.206988,EASTDALE MALL,MONTGOMERY,AL,36117,USA,,America/Chicago,,,,
531,531,Aeropostale,QUINTARD AEROPOSTALE,33.61268,-85.827281,QUINTARD MALL,OXFORD,AL,36203,USA,,America/Chicago,,,,
573,573,Aeropostale,WIREGRASS AEROPOSTALE,31.25582,-85.42761,WIREGRASS COMMONS,DOTHAN,AL,36303,USA,,America/Chicago,,,,
785,785,Aeropostale,EASTERN SHORE AEROPOSTALE,30.669026,-87.852038,EASTERN SHORE CENTRE,SPANISH FORT,AL,36527,USA,,America/Chicago,,,,
582,582,Aeropostale,FOLEY AEROPOSTALE,30.376431,-87.683129,TANGER OUTLET CTR FOLEY,FOLEY,AL,36535,USA,,America/Chicago,,,,
3986,3986,Aeropostale,TANGER FOLEY AERO - PS,30.3717829,-87.6831078,TANGER OUTLET CTR FOLEY,FOLEY,AL,36535,USA,,America/Chicago,,,,
301,301,Aeropostale,BEL AIRE AEROPOSTALE,30.670488,-88.122833,BEL AIRE MALL,MOBILE,AL,36606,USA,,America/Chicago,,,,
486,486,Aeropostale,COLONIAL (AL) AEROPOSTALE,32.624933,-85.446165,COLONIAL MALL,AUBURN,AL,36830,USA,,America/Chicago,,,,
235,235,Aeropostale,HICKORY HLLOW AEROPOSTALE,36.049238,-86.656895,HICKORY HOLLOW MALL,ANTIOCK,TN,37013,USA,,America/New_York,,,,
467,467,Aeropostale,GOVERNOR'S SQUARE (TN) AE,36.587695,-87.293853,GOVERNOR'S SQUARE,CLARKSVILLE,TN,37042,USA,,America/New_York,,,,
230,230,Aeropostale,COOLSPRINGS AEROPOSTALE,35.957807,-86.811271,COOLSPRINGS GALLERIA,FRANKLIN,TN,37067,USA,,America/New_York,,,,
239,239,Aeropostale,RIVERGATE AEROPOSTALE,36.298399,-86.699883,RIVERGATE MALL,GOODLETSVILLE,TN,37072,USA,,America/New_York,,,,
895,895,Aeropostale,LEBANON AEROPOSTALE,36.178462,-86.302314,PRIME OUTLETS LEBANON,LEBANON,TN,37090,USA,,America/New_York,,,,
188,188,Aeropostale,STONES RIVER AEROPOSTALE,35.846375,-86.417257,STONES RIVER MALL,MURFREESBORO,TN,37129,USA,,America/New_York,,,,
252,252,Aeropostale,OPRY MILLS AEROPOSTALE,36.205557,-86.696429,OPRY MILLS MALL,NASHVILLE,TN,37214,USA,,America/New_York,,,,
1100,1100,Aeropostale,GREEN HILLS AEROPOSTALE,36.106319,-86.817887,2126 ABBOTT MARTIN ROAD,NASHVILLE,TN,37215,USA,,America/New_York,,,,
809,809,Aeropostale,BRADLEY SQUARE AEROPOSTAL,35.203649,-84.848552,BRADLEY SQUARE,CLEVELAND,TN,37312,USA,,America/New_York,,,,
470,470,Aeropostale,NORTHGATE (TN) AEROPOSTAL,35.131697,-85.238491,NORTHGATE MALL,CHATTANOOGA,TN,37415,USA,,America/New_York,,,,
77,77,Aeropostale,HAMILTON PLACE AERO,35.037177,-85.160643,HAMILTON PLACE,CHATTANOOGA,TN,37421,USA,,America/New_York,,,,
243,243,Aeropostale,JOHNSON CITY AEROPOSTALE,36.339494,-82.374519,MALL AT JOHNSON CITY,JOHNSON CITY,TN,37601,USA,,America/New_York,,,,
593,593,Aeropostale,FORT HENRY AEROPOSTALE,36.528085,-82.523142,FORT HENRY MALL,KINGSPORT,TN,37664,USA,,America/New_York,,,,
799,799,Aeropostale,FOOTHILLS (TN) AEROPOSTAL,35.746203,-83.994844,FOOTHILLS MALL,MARYVILLE,TN,37801,USA,,America/New_York,,,,
707,707,Aeropostale,COLLEGE SQ (TN) AEROPOSTL,36.222482,-83.261505,COLLEGE SQUARE,MORRISTOWN,TN,37813,USA,,America/New_York,,,,
579,579,Aeropostale,FIVE OAKS AEROPOSTALE,35.833097,-83.572806,TANGER FIVE OAKS,SEVIERVILLE,TN,37862,USA,,America/New_York,,,,
505,505,Aeropostale,PIGEON FORGE AEROPOSTALE,39.125979,-94.827103,PIGEON FORGE OUTLETS,PIGEON FORGE,TN,37863,USA,,America/New_York,,,,
124,124,Aeropostale,WEST TOWN (TN) AEROPOSTAL,35.928107,-84.037574,WEST TOWN MALL,KNOXVILLE,TN,37919,USA,,America/New_York,,,,
225,225,Aeropostale,KNOXVILLE AEROPOSTALE,36.03232,-83.87915,KNOXVILLE CENTER MALL,KNOXVILLE,TN,37924,USA,,America/New_York,,,,
932,932,Aeropostale,TURKEY CREEK AEROPOSTALE,35.900036,-84.158707,PINNACLE AT TURKEY CREEK,CONCORD,TN,37934,USA,,America/New_York,,,,
840,840,Aeropostale,CARRIAGE CROSSING AERO,35.024368,-89.715852,THE AVENUE CARRIAGE CROSS,COLLIERVILLE,TN,38017,USA,,America/New_York,,,,
268,268,Aeropostale,OAK COURT AEROPOSTALE,35.118833,-89.913124,OAK COURT,MEMPHIS,TN,38117,USA,,America/New_York,,,,
389,389,Aeropostale,WOLFCHASE AEROPOSTALE,35.200808,-89.792067,WOLFCHASE GALLERIA,MEMPHIS,TN,38133,USA,,America/New_York,,,,
671,671,Aeropostale,OLD HICKORY AEROPOSTALE,35.656586,-88.827875,OLD HICKORY,JACKSON,TN,38305,USA,,America/New_York,,,,
784,784,Aeropostale,SOUTHAVEN AEROPOSTALE,34.95829,-89.99492,SOUTHAVEN TOWNE CENTER,SOUTHAVEN,MS,38671,USA,,America/Chicago,,,,
1134,1134,Aeropostale,TANGER SOUTHHAVEN AEROPOS,0,0,TANGER SOUTHHAVEN,SOUTHAVEN,MS,38671,USA,,America/Chicago,,,,
689,689,Aeropostale,BARNES CROSSING AEROPOSTA,34.315551,-88.703483,MALL AT BARNES CROSSING,TUPELO,MS,38804,USA,,America/Chicago,,,,
1122,1122,Aeropostale,BLOOMFILED OUTLET,32.29869,-90.132031,200 BASS PRO DRIVE,PEARL,MS,39208,USA,,America/Chicago,,,,
988,988,Aeropostale,DOGWOOD AEROPOSTALE,32.339624,-90.059352,DOGWOOD FESTIVAL,FLOWOOD,MS,39232,USA,,America/Chicago,,,,
839,839,Aeropostale,BONITA AEROPOSTALE,32.360163,-88.673968,BONITA LAKES,MERIDIAN,MS,39301,USA,,America/Chicago,,,,
765,765,Aeropostale,TURTLE CREEK AEROPOSTALE,31.324687,-89.37426,TURTLE CREEK MALL,HATTIESBURG,MS,39402,USA,,America/Chicago,,,,
3980,3980,Aeropostale,GULFPORT AEROPOSTALE PS,30.4312097,-89.0984344,PRIME OUTLETS GULFPORT,GULFPORT,MS,39503,USA,,America/Chicago,,,,
886,886,Aeropostale,GULFPORT AEROPOSTALE,30.427602,-89.097333,PRIME OUTLET GULFPORT,GULFPORT,MS,39503,USA,,America/Chicago,,,,
602,602,Aeropostale,NORTHPARK (MS) AEROPOSTAL,32.399538,-90.131349,NORTHPARK,JACKSON,MS,39517,USA,,America/Chicago,,,,
685,685,Aeropostale,EDGEWATER AEROPOSTALE,30.389535,-88.989741,EDGEWATER MALL,BILOXI,MS,39531,USA,,America/Chicago,,,,
1129,1129,Aeropostale,OUTLET SHOPPES BLUEGRASS,38.20607,-85.34908,1155 BUCK CREEK ROAD,SIMPSONVILLE,KY,40067,USA,,America/New_York,,,,
36,36,Aeropostale,ST MATTHEWS AEROPOSTALE,38.250156,-85.623443,ST MATTHEWS MALL,LOUISVILLE,KY,40207,USA,,America/New_York,,,,
377,377,Aeropostale,JEFFERSON AEROPOSTALE,38.138013,-85.673379,JEFFERSON MALL,LOUISVILLE,KY,40219,USA,,America/New_York,,,,
750,750,Aeropostale,FAYETTE AEROPOSTALE,37.98588,-84.526241,FAYETTE MALL,LEXINGTON,KY,40503,USA,,America/New_York,,,,
933,933,Aeropostale,HAMBURG AEROPOSTALE,38.025946,-84.422445,HAMBURG PAVILION,LEXINGTON,KY,40509,USA,,America/New_York,,,,
373,373,Aeropostale,FLORENCE AEROPOSTALE,38.994512,-84.652624,FLORENCE MALL,FLORENCE,KY,41042,USA,,America/New_York,,,,
610,610,Aeropostale,AEROPOSTALE.COM - GSI,0,0,40 LOGISTICS BLVD,WALTON,KY,41094,USA,,America/New_York,,,,
334,334,Aeropostale,ASHLAND AEROPOSTALE,38.484742,-82.65163,ASHLAND MALL,ASHLAND,KY,41101,USA,,America/New_York,,,,
385,385,Aeropostale,KENTUCKY OAKS AEROPOSTALE,37.077218,-88.684872,KENTUCKY OAKS MALL,PADUCAH,KY,42001,USA,,America/New_York,,,,
507,507,Aeropostale,GREENWOOD (KY) AEROPOSTAL,36.949049,-86.424567,GREENWOOD MALL,BOWLING GREEN,KY,42104,USA,,America/New_York,,,,
489,489,Aeropostale,TOWN SQUARE (KY) AEROPOST,37.721437,-87.124374,TOWN SQUARE MALL,OWENSBORO,KY,42301,USA,,America/New_York,,,,
459,459,Aeropostale,TOWNE MALL AEROPOSTALE,37.732939,-85.886569,TOWNE MALL,ELIZABETHTOWN,KY,42701,USA,,America/New_York,,,,
590,590,Aeropostale,TUTTLE AEROPOSTALE,40.076422,-83.129781,TUTTLE CROSSING,DUBLIN,OH,43016,USA,,America/New_York,,,,
397,397,Aeropostale,INDIAN MOUND AEROPOSTALE,40.031113,-82.443201,INDIAN MOUND MALL,HEATH,OH,43056,USA,,America/New_York,,,,
1133,1133,Aeropostale,TANGER OUTLET COLUMBUS AE,0,0,TANGER OUTLET COLUMBUS,SUNBURY,OH,43074,USA,,America/New_York,,,,
510,510,Aeropostale,JEFFERSONVILLE AEROPOSTAL,39.61905,-83.60429,PRIME OUTLETS JEFFERSONVI,JEFFERSONVILLE,OH,43128,USA,,America/New_York,,,,
335,335,Aeropostale,RIVER VALLEY AEROPOSTALE,39.73362,-82.63109,RIVER VALLEY MALL,LANCASTER,OH,43130,USA,,America/New_York,,,,
241,241,Aeropostale,COLUMBUS CITY AEROPOSTALE,39.851454,-82.888356,COLUMBUS CITY CENTER,COLUMBUS,OH,43215,USA,,America/New_York,,,,
396,396,Aeropostale,EASTON AEROPOSTALE,40.052587,-82.915496,THE TOWN CENTER AT EASTON,COLUMBUS,OH,43219,USA,,America/New_York,,,,
288,288,Aeropostale,EASTLAND (OH) AEROPOSTALE,39.91836,-82.88725,EASTLAND MALL,COLUMBUS,OH,43232,USA,,America/New_York,,,,
307,307,Aeropostale,POLARIS AEROPOSTALE,40.141578,-82.977665,POLARIS MALL,COLUMBUS,OH,43240,USA,,America/New_York,,,,
878,878,Aeropostale,FALLEN TIMBER AEROPOSTALE,41.547037,-83.705885,SHOPS AT FALLEN TIMBER,MAUMEE,OH,43537,USA,,America/New_York,,,,
227,227,Aeropostale,FRANKLIN PARK AEROPOSTALE,41.698194,-83.642137,FRANKLIN PARK MALL,TOLEDO,OH,43623,USA,,America/New_York,,,,
457,457,Aeropostale,COLONY SQUARE AEROPOSTALE,39.988685,-82.022971,CONONY SQUARE MALL,ZANESVILLE,OH,43701,USA,,America/New_York,,,,
103,103,Aeropostale,OHIO VALLEY AEROPOSTALE,40.069101,-80.864974,OHIO VALLEY MALL,ST. CLAIRSVILLE,OH,43950,USA,,America/New_York,,,,
309,309,Aeropostale,MIDWAY AEROPOSTALE,41.39433,-82.11,MIDWAY MALL,ELYRIA,OH,44035,USA,,America/New_York,,,,
123,123,Aeropostale,GREAT LAKES (OH) AERO,41.661276,-81.360033,GREAT LAKES MALL,MENTOR,OH,44060,USA,,America/New_York,,,,
27,27,Aeropostale,GREAT NORTHERN MALL,41.417028,-81.901903,GREAT NORTHERN MALL,NORTH OLMSTEAD,OH,44070,USA,,America/New_York,,,,
1033,1033,Aeropostale,BEACHWOOD AEROPOSTALE,41.501274,-81.496611,BEACHWOOD PLACE,BEACHWOOD,OH,44122,USA,,America/New_York,,,,
25,25,Aeropostale,PARMATOWN AEROPOSTALE,41.384522,-81.738772,PARMATOWN MALL  SPACE 4,PARMA,OH,44129,USA,,America/New_York,,,,
214,214,Aeropostale,STHPARK (OH) AEROPOSTALE,41.311584,-81.820248,SOUTHPARK CENTER,STRONGSVILLE,OH,44136,USA,,America/New_York,,,,
213,213,Aeropostale,RICHMOND (OH) AEROPOSTALE,41.5408352,-81.4952087,RICHMOND TOWN SQUARE,RICHMOND HEIGHTS,OH,44143,USA,,America/New_York,,,,
1041,1041,Aeropostale,CROCKER AEROPOSTALE,41.459634,-81.952727,CROCKER PARK,WESTLAKE,OH,44145,USA,,America/New_York,,,,
726,726,Aeropostale,AURORA (OH) AEROPOSTALE,41.302854,-81.345574,AURORA PREMIUM OUTLETS,AURORA,OH,44202,USA,,America/New_York,,,,
1040,1040,Aeropostale,LODI STATION AEROPOSTALE,41.002498,-81.996255,LODI STATION OUTLET,BURBANK,OH,44214,USA,,America/New_York,,,,
246,246,Aeropostale,CHAPEL HILL AEROPOSTALE,41.116942,-81.465611,CHAPEL HILL,AKRON,OH,44310,USA,,America/New_York,,,,
218,218,Aeropostale,SUMMIT AEROPOSTALE,41.132564,-81.619046,SUMMIT MALL,AKRON,OH,44333,USA,,America/New_York,,,,
219,219,Aeropostale,EASTWOOD (OH) AEROPOSTALE,41.210965,-80.752505,EASTWOOD MALL,NILES,OH,44446,USA,,America/New_York,,,,
201,201,Aeropostale,SOUTHERN PARK AEROPOSTALE,41.022636,-80.662691,SOUTHERN PARK MALL,YOUNGSTOWN,OH,44512,USA,,America/New_York,,,,
109,109,Aeropostale,BELDEN AEROPOSTALE,40.857453,-81.431301,BELDEN VILLAGE,CANTON,OH,44718,USA,,America/New_York,,,,
274,274,Aeropostale,SANDUSKY AEROPOSTALE,41.416317,-82.67218,SANDUSKY MALL,SANDUSKY,OH,44870,USA,,America/New_York,,,,
286,286,Aeropostale,RICHLAND (OH) AEROPOSTALE,40.768518,-82.59213,RICHLAND MALL,MANSFIELD,OH,44906,USA,,America/New_York,,,,
1049,1049,Aeropostale,CINCINNATI OUTLET AERO,39.435328,-84.33794,874 PREMIUM OUTLET DRIVE,MONROE,OH,45050,USA,,America/New_York,,,,
384,384,Aeropostale,KENWOOD AEROPOSTALE,39.199964,-84.377582,KENWOOD TOWN CENTER,CINCINNATI,OH,45236,USA,,America/New_York,,,,
668,668,Aeropostale,CINCINNATI MILLS AEROPOST,0,0,CINCINNATI MILLS,CINCINNATI,OH,45240,USA,,America/New_York,,,,
355,355,Aeropostale,EASTGATE AEROPOSTALE,39.102181,-84.272994,EASTGATE MALL,CINCINNATI,OH,45245,USA,,America/New_York,,,,
133,133,Aeropostale,TRI COUNTY AEROPOSTALE,39.290296,-84.46667,TRI COUNTY MALL,CINCINNATI,OH,45246,USA,,America/New_York,,,,
394,394,Aeropostale,NORTHGATE (OH) AEROPOSTAL,39.245586,-84.600392,NORTHGATE MALL,CINCINNATI,OH,45251,USA,,America/New_York,,,,
159,159,Aeropostale,FAIRFIELD AEROPOSTALE,39.76547,-84.05229,FAIRFIELD MALL,DAYTON,OH,45431,USA,,America/New_York,,,,
879,879,Aeropostale,GREENE AEROPOSTALE,39.693647,-84.103296,GREENE TOWN CENTER,DAYTON,OH,45440,USA,,America/New_York,,,,
190,190,Aeropostale,DAYTON AEROPOSTALE,39.636716,-84.218972,DAYTON MALL,DAYTON,OH,45459,USA,,America/New_York,,,,
386,386,Aeropostale,UPPER VALLEY AEROPOSTALE,39.947603,-83.851961,UPPER VALLEY MALL,SPRINGFIELD,OH,45504,USA,,America/New_York,,,,
548,548,Aeropostale,LIMA AEROPOSTALE,40.762926,-84.149422,LIMA MALL,LIMA,OH,45805,USA,,America/New_York,,,,
365,365,Aeropostale,FINDLAY AEROPOSTALE,41.052979,-83.614189,FINDLAY VILLAGE,FINDLAY,OH,45840,USA,,America/New_York,,,,
670,670,Aeropostale,CLAY TERRACE AEROPOSTALE,39.998504,-86.129882,CLAY TERRACE,CARMEL,IN,46032,USA,,America/New_York,,,,
973,973,Aeropostale,HAMILTON (IN) AEROPOSTALE,39.993846,-85.931555,HAMILTON TOWN CENTER,NOBLESVILLE,IN,46060,USA,,America/New_York,,,,
713,713,Aeropostale,EDINBURGH AEROPOSTALE,39.307633,-85.961827,EDINBURGH PREMIUM OUTLETS,EDINBURGH,IN,46124,USA,,America/New_York,,,,
3981,3981,Aeropostale,EDINBURGH PREMIUM AEROPOS,39.3110416,-85.9593487,EDINBURGH PREMIUM OUTLETS,EDINBURGH,IN,46124,USA,,America/New_York,,,,
114,114,Aeropostale,GREENWOOD (IN) AEROPOSTAL,39.632699,-86.124666,GREENWOOD PARK MALL,INDIANAPOLIS,IN,46142,USA,,America/New_York,,,,
804,804,Aeropostale,PERRY CROSSING AEROPOSTAL,39.711583,-86.355403,PERRY CROSSING,PLAINFIELD,IN,46168,USA,,America/New_York,,,,
257,257,Aeropostale,CIRCLE CENTRE AEROPOSTALE,39.765664,-86.158984,CIRCLE CENTRE,INDIANAPOLIS,IN,46225,USA,,America/New_York,,,,
333,333,Aeropostale,WSHINGTN SQ AEROPOSTALE,39.775112,-85.987186,WASHINGTON SQUARE MALL,INDIANAPOLIS,IN,46229,USA,,America/New_York,,,,
85,85,Aeropostale,CASTLETON AEROPOSTALE,39.905361,-86.064006,CASTLETON SQUARE,INDIANAPOLIS,IN,46250,USA,,America/New_York,,,,
480,480,Aeropostale,LAFAYETTE AEROPOSTALE,39.83181,-86.237025,LAFAYETTE SQUARE,INDIANAPOLIS,IN,46254,USA,,America/New_York,,,,
653,653,Aeropostale,LIGHTHOUSE AEROPOSTALE,41.713972,-86.906063,LIGHTHOUSE PLACE OUTLETS,MICHIGAN CITY,IN,46360,USA,,America/New_York,,,,
3993,3993,Aeropostale,LIGHTHOUSE AEROPOSTALE PS,41.7148591,-86.9050741,LIGHTHOUSE PLACE PREM OUT,MICHIGAN CITY,IN,46360,USA,,America/New_York,,,,
157,157,Aeropostale,SOUTHLAKE AEROPOSTALE,41.46655,-87.30985,SOUTHLAKE MALL,MERRILLVILLE,IN,46410,USA,,America/New_York,,,,
116,116,Aeropostale,UNIVERSITY PK AEROPOSTALE,41.719671,-86.18776,UNIVERSITY PARK MALL,SOUTH BEND,IN,46545,USA,,America/New_York,,,,
1071,1071,Aeropostale,FREMONT AEROPOSTALE,41.733461,-85.002323,6245 NORTH OLD 27,FREEMONT,IN,46737,USA,,America/New_York,,,,
338,338,Aeropostale,JEFFERSN PNTE AEROPOSTALE,41.070579,-85.194373,JEFFERSON POINTE,FT. WAYNE,IN,46804,USA,,America/New_York,,,,
215,215,Aeropostale,GLENBROOK AEROPOSTALE,41.11466,-85.13544,GLENBROOK SQUARE MALL,FORT WAYNE,IN,46805,USA,,America/New_York,,,,
646,646,Aeropostale,MARKLAND AEROPOSTALE,40.473577,-86.107922,MARKLAND MALL,KOKOMO,IN,46902,USA,,America/New_York,,,,
529,529,Aeropostale,GREEN TREE AEROPOSTALE,38.313483,-85.76308,GREEN TREE MALL,CLARKSVILLE,IN,47129,USA,,America/New_York,,,,
851,851,Aeropostale,FAIR OAKS (IN) AEROPSTLE,39.223038,-85.901091,FAIR OAKS MALL,COLUMBUS,IN,47201,USA,,America/New_York,,,,
221,221,Aeropostale,MUNCIE AEROPOSTALE,40.221026,-85.373012,MUNCIE MALL,MUNCIE,IN,47303,USA,,America/New_York,,,,
643,643,Aeropostale,RICHMOND (IN) AEROPOSTALE,39.831074,-84.846845,RICHMOND SQUARE,RICHMOND,IN,47374,USA,,America/New_York,,,,
220,220,Aeropostale,COLLEGE MALL AEROPOSTALE,39.164202,-86.494231,COLLEGE MALL,BLOOMINGTON,IN,47401,USA,,America/New_York,,,,
251,251,Aeropostale,EASTLAND (IN) AEROPOSTALE,37.984259,-87.492685,EASTLAND MALL,EVANSVILLE,IN,47715,USA,,America/New_York,,,,
238,238,Aeropostale,HONEY CREEK AEROPOSTALE,39.426689,-87.415857,HONEY CREEK MALL,TERRE HAUTE,IN,47802,USA,,America/New_York,,,,
175,175,Aeropostale,TIPPECANOE AEROPOSTALE,40.392408,-86.853925,TIPPECANOE MALL,LAFAYETTE,IN,47905,USA,,America/New_York,,,,
367,367,Aeropostale,BIRCHWOOD AEROPOSTALE,43.035719,-82.456435,BIRCHWOOD MALL,FORT GRATIOT,MI,48059,USA,,America/New_York,,,,
297,297,Aeropostale,MACOMB AEROPOSTALE,42.534065,-82.912928,MACOMB MALL,ROSEVILLE,MI,48066,USA,,America/New_York,,,,
754,754,Aeropostale,OAKLAND AEROPOSTALE,42.534264,-83.110315,OAKLAND MALL,TROY,MI,48083,USA,,America/New_York,,,,
1077,1077,Aeropostale,SOMERSET COLLECTION AERO,42.561457,-83.183886,2801 W. BIG BEAVER ROAD,TROY,MI,48084,USA,,America/New_York,,,,
831,831,Aeropostale,BRIARWOOD AEROPOSTALE,42.242818,-83.746241,BRIARWOOD MALL,ANN ARBOR,MI,48108,USA,,America/New_York,,,,
877,877,Aeropostale,GREEN OAKS AEROPOSTALE,42.507285,-83.753428,GREEN OAKS VILLAGE,BRIGHTON,MI,48116,USA,,America/New_York,,,,
231,231,Aeropostale,FAIRLANE AEROPOSTALE,42.309632,-83.222315,FAIRLANE TOWN CENTER,FAIRLANE,MI,48126,USA,,America/New_York,,,,
1076,1076,Aeropostale,LAUREL PARK AEROPOSTALE,42.410953,-83.415382,LAUREL PARK,LIVONIA,MI,48152,USA,,America/New_York,,,,
716,716,Aeropostale,THE MALL OF MONROE AERO,41.945404,-83.384551,FRENCHTOWN MALL,MONROE,MI,48162,USA,,America/New_York,,,,
189,189,Aeropostale,SOUTHLAND CTR AEROPOSTALE,42.197834,-83.256926,SOUTHLAND CENTER,TAYLOR,MI,48180,USA,,America/New_York,,,,
989,989,Aeropostale,WESTLAND AEROPOSTALE,42.338946,-83.385055,WESTLAND CENTER,WESTLAND,MI,48185,USA,,America/New_York,,,,
1060,1060,Aeropostale,ROCHESTER HILL AERO,42.682772,-83.194098,VILLAGE OF ROCHESTER HILL,ROCHESTER HILLS,MI,48309,USA,,America/New_York,,,,
111,111,Aeropostale,LAKESIDE AEROPOSTALE,42.624962,-82.982299,LAKESIDE MALL D-129,STERLING HEIGHTS,MI,48313,USA,,America/New_York,,,,
202,202,Aeropostale,GREAT LAKES (MI) AEROPOST,42.701707,-83.304814,GREAT LAKES MALL,AUBURN HILLS,MI,48326,USA,,America/New_York,,,,
71,71,Aeropostale,TWELVE OAKS AEROPOSTALE,42.48978,-83.475972,TWELVE OAKS MALL,NOVI,MI,48377,USA,,America/New_York,,,,
511,511,Aeropostale,BIRCH RUN AEROPOSTALE,43.24816,-83.77502,PRIME OUTLETS BIRCH RUN,BIRCH RUN,MI,48415,USA,,America/New_York,,,,
3998,3998,Aeropostale,BIRCH RUN AEROPOSTALE PS,43.246618,-83.777959,PRIME OUTLETS BIRCH RUN,BIRCH RUN,MI,48415,USA,,America/New_York,,,,
113,113,Aeropostale,GENESEE AEROPOSTALE,42.980498,-83.772105,GENESEE MALL,FLINT,MI,48507,USA,,America/New_York,,,,
247,247,Aeropostale,FASHION SQ AEROPOSTALE,43.47735,-83.97523,FASHION SQUARE MALL,SAGINAW,MI,48604,USA,,America/New_York,,,,
551,551,Aeropostale,MIDLAND (MI) AEROPOSTALE,43.65911,-84.247203,MIDLAND MALL,MIDLAND,MI,48642,USA,,America/New_York,,,,
464,464,Aeropostale,BAY CITY AEROPOSTALE,43.623805,-83.892516,BAY CITY MALL,BAY CITY,MI,48706,USA,,America/New_York,,,,
683,683,Aeropostale,HOWELL AEROPOSTALE,42.621014,-83.993446,TANGER CENTER @ HOWELL,HOWELL,MI,48855,USA,,America/New_York,,,,
226,226,Aeropostale,MERIDIAN AEROPOSTALE,42.72101,-84.421758,MERIDIAN MALL,OKEMOS,MI,48864,USA,,America/New_York,,,,
447,447,Aeropostale,EASTWOOD (MI) AEROPOSTALE,42.763946,-84.513409,EASTWOOD TOWN CENTER,LANSING,MI,48912,USA,,America/New_York,,,,
465,465,Aeropostale,LANSING AEROPOSTALE,42.741028,-84.624342,LANSING MALL,LANSING,MI,48917,USA,,America/New_York,,,,
466,466,Aeropostale,LAKEVIEW AEROPOSTALE,42.261058,-85.182431,LAKEVIEW SQUARE,BATTLE CREEK,MI,49015,USA,,America/New_York,,,,
518,518,Aeropostale,CROSSROADS (MI) AEROPOSTA,42.220903,-85.589457,CROSSROADS MALL,PORTAGE,MI,49024,USA,,America/New_York,,,,
446,446,Aeropostale,WESTWOOD AEROPOSTALE,42.247477,-84.437882,WESTWOOD MALL,JACKSON,MI,49202,USA,,America/New_York,,,,
664,664,Aeropostale,ADRIAN AEROPOSTALE,41.879193,-84.043207,ADRIAN MALL,ADRIAN,MI,49221,USA,,America/New_York,,,,
1141,1141,Aeropostale,GRAND RAPIDS AEROPOSTALE,0,0,TANGER GRAND RAPIDS,BYRON CENTER,MI,49315,USA,,America/New_York,,,,
207,207,Aeropostale,RIVERTOWN AEROPOSTALE,42.882292,-85.754969,RIVERTOWN CROSSING,GRANDVILLE,MI,49418,USA,,America/New_York,,,,
458,458,Aeropostale,WESTSHORE (MI) AEROPOSTAL,42.815456,-86.087411,WESTSHORE MALL,HOLLAND,MI,49424,USA,,America/New_York,,,,
341,341,Aeropostale,THE LAKES AEROPOSTALE,43.150106,-86.205865,THE LAKES MALL,MUSKEGON,MI,49444,USA,,America/New_York,,,,
289,289,Aeropostale,WOODLAND AEROPOSTALE,42.912523,-85.58884,WOODLAND MALL,GRAND RAPIDS,MI,49512,USA,,America/New_York,,,,
454,454,Aeropostale,GRAND TRAVERSE AEROPOSTA,44.723515,-85.636202,GRAND TRAVERSE,TRAVERSE CITY,MI,49684,USA,,America/New_York,,,,
374,374,Aeropostale,NORTH GRAND AEROPOSTALE,42.04957,-93.620649,NORTH GRAND MALL,AMES,IA,50010,USA,,America/Chicago,,,,
649,649,Aeropostale,JORDAN CREEK AEROPOSTALE,41.568902,-93.809188,JORDAN CREEK,DES MOINES,IA,50266,USA,,America/Chicago,,,,
554,554,Aeropostale,VALLEY WEST AEROPOSTALE,41.59548,-93.751726,VALLEY WEST MALL,WEST DES MOINES,IA,50266,USA,,America/Chicago,,,,
266,266,Aeropostale,MERLE HAY AEROPOSTALE,41.629611,-93.697772,MERLE HAY MALL,DES MOINES,IA,50310,USA,,America/Chicago,,,,
388,388,Aeropostale,COLLEGE SQUARE AEROPOSTAL,42.512772,-92.432168,COLLEGE SQUARE MALL,CEDAR FALLS,IA,50613,USA,,America/Chicago,,,,
568,568,Aeropostale,SOUTHERN HILLS AEROPOSTAL,42.448119,-96.350015,SOUTHERN HILLS MALL,SIOUX CITY,IA,51106,USA,,America/Chicago,,,,
556,556,Aeropostale,BLUFFS AEROPOSTALE,41.246732,-95.824638,MALL OF THE BLUFFS,COUNCIL BLUFFS,IA,51503,USA,,America/Chicago,,,,
281,281,Aeropostale,KENNEDY MALL AEROPOSTALE,42.495155,-90.718809,KENNEDY MALL,DUBUQUE,IA,52002,USA,,America/Chicago,,,,
440,440,Aeropostale,CORAL RIDGE AEROPOSTALE,41.691093,-91.608436,CORAL RIDGE MALL,CORALVILLE,IA,52241,USA,,America/Chicago,,,,
613,613,Aeropostale,WILLIAMSBURG AEROPOSTALE,41.689871,-92.005497,TANGER WILLIAMSBURG,WILLIAMSBURG,IA,52361,USA,,America/Chicago,,,,
757,757,Aeropostale,LINDALE AEROPOSTALE,42.02315,-91.627016,LINDALE MALL,CEDAR RAPIDS,IA,52402,USA,,America/Chicago,,,,
353,353,Aeropostale,NORTH PARK AEROPOSTALE,41.56023,-90.577088,NORTH PARK,DAVENPORT,IA,52806,USA,,America/Chicago,,,,
380,380,Aeropostale,BROOKFIELD AEROPOSTALE,43.060482,-88.098539,BROOKFIELD SQUARE,BROOKFIELD,WI,53005,USA,,America/Chicago,,,,
616,616,Aeropostale,JOHNSON CREEK AEROPOSTALE,43.08984,-88.762447,JOHNSON CREEK OUTLETS,JOHNSON CREEK,WI,53038,USA,,America/Chicago,,,,
522,522,Aeropostale,SOUTHRIDGE AEROPOSTALE,42.948495,-88.008384,SOUTHRIDGE MALL,GREENDALE,WI,53129,USA,,America/Chicago,,,,
509,509,Aeropostale,PLEASANT PRAIRIE AEROPOST,42.514184,-87.951163,PRIME OUTLETS AT PLEASANT,KENOSHA,WI,53158,USA,,America/Chicago,,,,
858,858,Aeropostale,BAYSHORE AEROPOSTALE,43.122612,-87.914357,BAYSHORE,GLENDALE,WI,53217,USA,,America/Chicago,,,,
318,318,Aeropostale,MAYFAIR AEROPOSTALE,43.064663,-88.047636,MAYFAIR MALL,WAUWATOSA,WI,53226,USA,,America/Chicago,,,,
393,393,Aeropostale,REGENCY AEROPOSTALE,42.697386,-87.848526,REGENCY MALL,RACINE,WI,53406,USA,,America/Chicago,,,,
460,460,Aeropostale,JANESVILLE AEROPOSTALE,42.712651,-89.001425,JANESVILLE MALL,JANESVILLE,WI,53545,USA,,America/Chicago,,,,
644,644,Aeropostale,EAST TOWNE AEROPOSTALE,43.122356,-89.305848,EAST TOWNE MALL,MADISON,WI,53704,USA,,America/Chicago,,,,
392,392,Aeropostale,WEST TOWNE (WI) AEROPOSTA,43.05639,-89.50386,WEST TOWNE MALL,MADISON,WI,53719,USA,,America/Chicago,,,,
1073,1073,Aeropostale,WISCONSIN DELLS AERO,43.575655,-89.785096,WISCONSIN DELLS OUTLET,BARABOO,WI,53913,USA,,America/Chicago,,,,
544,544,Aeropostale,BAY PARK AEROPOSTALE,44.485759,-88.063294,BAY PARK SQUARE,GREEN BAY,WI,54304,USA,,America/Chicago,,,,
366,366,Aeropostale,WAUSAU AEROPOSTALE,44.958973,-89.628037,WAUSAU MALL,WAUSAU,WI,54403,USA,,America/Chicago,,,,
549,549,Aeropostale,VALLEY VIEW AEROPOS 00549,43.867844,-91.197132,VALLEY VIEW MALL,LACROSSE,WI,54601,USA,,America/Chicago,,,,
340,340,Aeropostale,OAKWOOD AEROPOSTALE,44.775099,-91.437562,OAKWOOD MALL,EAU CLAIRE,WI,54701,USA,,America/Chicago,,,,
905,905,Aeropostale,OSHKOSH AEROPOSTALE,43.983706,-88.583302,OUTLET SHOPPES @ OSHKOSH,OSHKOSH,WI,54904,USA,,America/Chicago,,,,
546,546,Aeropostale,FOX RIVER AEROPOSTALE,44.273028,-88.469748,FOX RIVER MALL,APPLETON,WI,54913,USA,,America/Chicago,,,,
767,767,Aeropostale,FOREST AEROPOSTALE,43.784451,-88.475395,FOREST MALL,FOND DU LAC,WI,54935,USA,,America/Chicago,,,,
244,244,Aeropostale,MAPLEWOOD AEROPOSTALE,45.031621,-93.018124,MAPLEWOOD MALL,MAPLEWOOD,MN,55109,USA,,America/Chicago,,,,
848,848,Aeropostale,ROSEDALE AEROPOSTALE,45.014006,-93.169571,ROSEDALE SHOPPING CENTER,MINNEAPOLIS,MN,55113,USA,,America/Chicago,,,,
742,742,Aeropostale,WOODBURY (MN) AEROPOSTALE,44.945599,-92.921873,WOODBURY LAKES,WOODBURY,MN,55125,USA,,America/Chicago,,,,
651,651,Aeropostale,ALBERTVILLE AEROPOSTALE,45.244605,-93.663397,ALBERTVILLE PREMIUM OUTLE,ALBERTVILLE,MN,55301,USA,,America/Chicago,,,,
564,564,Aeropostale,RIDGEDALE AEROPOSTALE,44.970438,-93.435674,RIDGEDALE CENTER,MINNETONKA,MN,55305,USA,,America/Chicago,,,,
250,250,Aeropostale,BURNSVILLE AEROPOSTALE,44.74531,-93.29249,BURNSVILLE CENTER,BURNSVILLE,MN,55306,USA,,America/Chicago,,,,
369,369,Aeropostale,EDEN PRARIE AEROPOSTALE,44.854148,-93.429835,EDEN PRARIE MALL,EDEN PRAIRIE,MN,55344,USA,,America/Chicago,,,,
542,542,Aeropostale,ARBOR LAKES AEROPOSTALE,45.09406,-93.438853,THE SHOPPES @ ARBOR LAKES,MAPLE GROVE,MN,55369,USA,,America/Chicago,,,,
204,204,Aeropostale,MALLOFAMERICA AEROPOSTALE,44.855382,-93.242698,MALL OF AMERICA,BLOOMINGTON,MN,55425,USA,,America/Chicago,,,,
303,303,Aeropostale,NORTHTOWN AEROPOSTALE,45.128221,-93.259313,NORTHTOWN MALL,BLAINE,MN,55434,USA,,America/Chicago,,,,
703,703,Aeropostale,SOUTHDALE AEROPOSTALE,44.882508,-93.322018,SOUTHDALE CENTER,EDINA,MN,55435,USA,,America/Chicago,,,,
955,955,Aeropostale,RIVERDALE AEROPOSTALE,45.201002,-93.353438,RIVERDALE VILLAGE,COON RAPIDS,MN,55448,USA,,America/Chicago,,,,
265,265,Aeropostale,MILLER HILL AEROPOSTALE,46.806662,-92.160992,MILLER HILL MALL,DELUTH,MN,55811,USA,,America/Chicago,,,,
474,474,Aeropostale,APACHE AEROPOSTALE,44.006191,-92.479148,APACHE MALL,ROCHESTER,MN,55901,USA,,America/Chicago,,,,
300,300,Aeropostale,RIVER HILLS AEROPOSTALE,44.170476,-93.952014,RIVER HILLS MALL,MANKATO,MN,56001,USA,,America/Chicago,,,,
450,450,Aeropostale,CROSSROADS (MN) AEROPOSTA,45.553452,-94.209201,CROSSROADS CENTER,ST. CLOUD,MN,56301,USA,,America/Chicago,,,,
567,567,Aeropostale,EMPIRE AEROPOSTALE,43.508,-96.77741,EMPIRE MALL,SIOUX FALLS,SD,57106,USA,,America/Chicago,,,,
598,598,Aeropostale,RUSHMORE AEROPOSTALE,44.106561,-103.207985,RUSHMORE MALL,RAPID CITY,SD,57701,USA,,America/Chicago,,,,
604,604,Aeropostale,WEST ACRES AEROPOSTALE,46.861591,-96.846555,WEST ACRES MALL,FARGO,ND,58103,USA,,America/Chicago,,,,
547,547,Aeropostale,COLUMBIA (ND) AEROPOSTALE,47.893123,-97.0712,COLUMBIA MALL,GRAND FORKS,ND,58201,USA,,America/Chicago,,,,
525,525,Aeropostale,KIRKWOOD AEROPOSTALE,46.80034,-100.7845,KIRKWOOD MALL,BISMARK,ND,58504,USA,,America/Chicago,,,,
586,586,Aeropostale,DAKOTA SQUARE AEROPOSTALE,48.20422,-101.310601,DAKOTA SQUARE,MINOT,ND,58701,USA,,America/Chicago,,,,
760,760,Aeropostale,RIMROCK AEROPOSTALE,45.764612,-108.576247,RIMROCK MALL,BILLINGS,MT,59102,USA,,America/Denver,,,,
974,974,Aeropostale,GALLATIN AEROPOSTALE,45.672247,-111.075007,GALLETIN VALLEY MALL,BOZEMAN,MT,59718,USA,,America/Denver,,,,
883,883,Aeropostale,SOUTHGATE AEROPOSTALE,46.843985,-114.025069,SOUTHGATE MALL,MISSOULA,MT,59801,USA,,America/Denver,,,,
992,992,Aeropostale,S BARRINGTON AEROPOSTALE,42.071914,-88.180122,ARBORETUM OF S BARRINGTON,SOUTH BARRINGTON,IL,60010,USA,,America/Chicago,,,,
1120,1120,Aeropostale,FASHION OUTLET CHICAGO,41.975693,-87.86609,5520 ROSE STREET,ROSEMONT,IL,60018,USA,,America/Chicago,,,,
810,810,Aeropostale,GURNEE MILLS AEROPOSTALE,42.383375,-87.95531,GURNEE MILLS,GURNEE,IL,60031,USA,,America/Chicago,,,,
142,142,Aeropostale,HAWTHORN AEROPOSTALE,42.241049,-87.950688,HAWTHORN CENTER MALL,VERNON HILLS,IL,60061,USA,,America/Chicago,,,,
1069,1069,Aeropostale,OLD ORCHARD AEROPOSTALE,42.058923,-87.747634,4999 OLD ORCHARD CENTER,SKOKIE,IL,60077,USA,,America/Chicago,,,,
659,659,Aeropostale,ALGONQUIN AEROPOSTALE,42.148674,-88.335707,ALGONQUIN COMMONS,ALGONQUIN,IL,60102,USA,,America/Chicago,,,,
143,143,Aeropostale,STRATFORD AEROPOSTALE,41.950668,-88.112507,STRATFORD SQUARE MALL,BLOOMINGDALE (BSS),IL,60108,USA,,America/Chicago,,,,
361,361,Aeropostale,SPRING HILL AEROPOSTALE,42.100456,-88.296808,SPRING HILL MALL,WEST DUNDEE,IL,60118,USA,,America/Chicago,,,,
521,521,Aeropostale,GENEVA AEROPOSTALE,41.893691,-88.343627,GENEVA COMMONS,GENEVA,IL,60134,USA,,America/Chicago,,,,
516,516,Aeropostale,HUNTLEY AEROPOSTALE,42.122848,-88.42655,PRIME OUTLETS AT HUNTLEY,HUNTLEY,IL,60142,USA,,America/Chicago,,,,
478,478,Aeropostale,YORKTOWN AEROPOSTALE,41.839799,-88.010977,YORKTOWN CENTER,LOMBARD,IL,60148,USA,,America/Chicago,,,,
146,146,Aeropostale,WOODFIELD AEROPOSTALE,42.045436,-88.036857,WOODFIELD MALL,SCHAUMBURG,IL,60173,USA,,America/Chicago,,,,
255,255,Aeropostale,CHARLESTOWN AEROPOSTALE,41.921475,-88.263982,CHARLESTOWN MALL,SAINT CHARLES,IL,60174,USA,,America/Chicago,,,,
41,41,Aeropostale,RIVER OAKS AEROPOSTALE,41.597876,-87.554211,RIVER OAKS CENTER,CALUMET CITY,IL,60409,USA,,America/Chicago,,,,
332,332,Aeropostale,CHICAGO RIDGE AEROPOSTALE,41.715016,-87.784314,CHICAGO RIDGE MALL,CHICAGO RIDGE,IL,60415,USA,,America/Chicago,,,,
449,449,Aeropostale,LOUIS JOLIET AEROPOSTALE,41.57951,-88.163169,LOUIS JOLIET MALL,LOUIS JOLIET,IL,60431,USA,,America/Chicago,,,,
904,904,Aeropostale,BOLINGBROOK AEROPOSTALE,41.720247,-88.044711,PROMENADE AT BOLINGBROOK,BOLINGBROOK,IL,60440,USA,,America/Chicago,,,,
198,198,Aeropostale,ORLAND AEROPOSTALE,41.618465,-87.843623,ORLAND SQUARE,ORLAND PARK,IL,60462,USA,,America/Chicago,,,,
3992,3992,Aeropostale,CHICAGO OUTLET AERO PS,41.8013909,-88.2735157,CHICAGO PREMIUM OUTLETS,AURORA,IL,60502,USA,,America/Chicago,,,,
147,147,Aeropostale,FOX VALLEY AEROPOSTALE,41.76063,-88.21304,FOX VALLEY CENTER,AURORA,IL,60504,USA,,America/Chicago,,,,
719,719,Aeropostale,CHICAGO AEROPOSTALE,41.801295,-88.277914,CHICAGO PREMIUM OUTLETS,AURORA,IL,60504,USA,,America/Chicago,,,,
845,845,Aeropostale,OAKBROOK AEROPOSTALE,41.85363,-87.95195,OAKBROOK CENTER,OAKBROOK,IL,60523,USA,,America/Chicago,,,,
946,946,Aeropostale,BURR RIDGE AEROPOSTALE,41.752255,-87.91246,BURR RIDGE TOWN CENTER,BURR RIDGE,IL,60527,USA,,America/Chicago,,,,
1101,1101,Aeropostale,NORTH RIVERSIDE AEROPOSTA,41.850269,-87.810186,7501 WEST CERMAK ROAD,NORTH RIVERSIDE,IL,60546,USA,,America/Chicago,,,,
996,996,Aeropostale,WATER TOWER AEROPOSTALE,41.897907,-87.624071,WATER TOWER PLACE,CHICAGO,IL,60611,USA,,America/Chicago,,,,
1082,1082,Aeropostale,HARLEM IRVING AEROPOSTALE,41.964363,-87.817671,HARLEM IRVING PLAZA,NORRIDGE,IL,60706,USA,,America/Chicago,,,,
1034,1034,Aeropostale,NORTHFIELD AEROPOSTALE,41.173731,-87.851306,NORTHFIELD SQUARE,BOURBONNAIS,IL,60914,USA,,America/Chicago,,,,
314,314,Aeropostale,CHERRYVALE AEROPOSTALE,42.241188,-88.974962,CHERRYVALE MALL,ROCKFORD,IL,61112,USA,,America/Chicago,,,,
354,354,Aeropostale,STHPARK (IL) AEROPOSTALE,41.468597,-90.507003,SOUTHPARK MALL,MOLINE,IL,61265,USA,,America/Chicago,,,,
364,364,Aeropostale,NORTHWOODS (IL) AEROPOSTA,40.740074,-89.625873,NORTHWOODS MALL,PEORIA,IL,61613,USA,,America/Chicago,,,,
669,669,Aeropostale,GRANDE PRAIRIE AEROPOSTAL,40.776656,-89.674978,SHOPPES AT GRANDE PRAIRIE,PEORIA,IL,61615,USA,,America/Chicago,,,,
275,275,Aeropostale,EASTLAND (IL) AEROPOSTALE,40.488132,-88.956332,EASTLAND MALL,BLOOMINGTON,IL,61701,USA,,America/Chicago,,,,
216,216,Aeropostale,MARKET PLACE AEROPOSTALE,40.140055,-88.245039,MARKET PLACE MALL,CHAMPAIGNE,IL,61820,USA,,America/Chicago,,,,
1096,1096,Aeropostale,TANGER OUTLETS TUSCOLA,39.78789,-88.26942,D400 TUSCOLA BLVD,TUSCOLA,IL,61953,USA,,America/Chicago,,,,
315,315,Aeropostale,ST CLAIR AEROPOSTALE,38.59465,-89.982544,ST CLAIR SQUARE,FAIRVIEW HEIGHTS,IL,62208,USA,,America/Chicago,,,,
920,920,Aeropostale,HICKORY (IL) AEROPOSTALE,39.920923,-88.958343,HICKORY POINT,FORSYTH,IL,62535,USA,,America/Chicago,,,,
319,319,Aeropostale,WHITE OAKS AEROPOSTALE,39.764195,-89.70354,WHITE OAKS MALL,SPRINGFIELD,IL,62704,USA,,America/Chicago,,,,
451,451,Aeropostale,UNIVERSITY (IL) AEROPOSTA,37.730983,-89.192056,UNIVERSITY MALL,CARBONDALE,IL,62901,USA,,America/Chicago,,,,
245,245,Aeropostale,CHESTERFIELD (MO) AEROPOS,38.650507,-90.565388,CHESTERFIELD MALL,CHESTERFIELD,MO,63017,USA,,America/Chicago,,,,
636,636,Aeropostale,ST LOUIS MILLS AEROPOSTAL,38.785945,-90.416002,ST. LOUIS MILLS,HAZELWOOD,MO,63042,USA,,America/Chicago,,,,
270,270,Aeropostale,NRTHWEST PLZA AEROPOSTALE,38.732786,-90.402531,NORTHWEST PLAZA,ST ANNE,MO,63074,USA,,America/Chicago,,,,
714,714,Aeropostale,ST LOUIS GALLERIA AERO,38.636065,-90.34733,ST LOUIS GALLERIA,RICHMOND HEIGHTS,MO,63117,USA,,America/Chicago,,,,
253,253,Aeropostale,CRESTWOOD AEROPOSTALE,38.560031,-90.378645,CRESTWOOD PLAZA,CRESTWOOD,MO,63126,USA,,America/Chicago,,,,
308,308,Aeropostale,SOUTH COUNTY AEROPOSTALE,38.50496,-90.334264,SOUTH COUNTY MALL,SAINT LOUIS,MO,63129,USA,,America/Chicago,,,,
950,950,Aeropostale,WEST COUNTY AEROPOSTALE,38.602834,-90.448236,WEST COUNTY MALL,DES PERES (MBCCID),MO,63131,USA,,America/Chicago,,,,
1010,1010,Aeropostale,MEADOWS (MO) AEROPOSTALE,38.781026,-90.790972,THE MEADOWS,LAKE SAINT LOUIS,MO,63367,USA,,America/Chicago,,,,
254,254,Aeropostale,MID RIVERS AEROPOSTALE,38.79716,-90.620404,MID RIVERS,SAINT PETERS (CDD87),MO,63376,USA,,America/Chicago,,,,
461,461,Aeropostale,WEST PARK AEROPOSTALE,37.299087,-89.574309,WEST PARK MALL,CAPE GIRARDEAU,MO,63703,USA,,America/Chicago,,,,
306,306,Aeropostale,INDPNDNCE-MO AEROPOSTALE,39.047155,-94.36036,INDEPENDENCE MALL,INDEPENDENCE (CDD86),MO,64055,USA,,America/Chicago,,,,
43,43,Aeropostale,LYCOMING AEROPOSTALE,41.243298,-76.828292,LYCOMING MALL,PENNSDALE,PA,64057,USA,,America/New_York,,,,
672,672,Aeropostale,ZONA ROSA AEROPOSTALE,39.250959,-94.6627,ZONA ROSA,KANSAS CITY,MO,64153,USA,,America/Chicago,,,,
469,469,Aeropostale,NORTHPARK (MO) AEROPOSTAL,37.091068,-94.476985,NORTHPARK MALL,JOPLIN,MO,64801,USA,,America/Chicago,,,,
687,687,Aeropostale,OSAGE BEACH AEROPOSTALE,38.146497,-92.624925,OSAGE BEACH PREMIUM OUTLT,OSAGE BEACH,MO,65065,USA,,America/Chicago,,,,
530,530,Aeropostale,COLUMBIA (MO) AEROPOSTALE,38.965862,-92.374211,COLUMBIA MALL,COLUMBIA,MO,65203,USA,,America/Chicago,,,,
830,830,Aeropostale,BRANSON LNDG AEROPOSATLE,36.646407,-93.215521,BRANSON LANDING,BRANSON (BHIRFCID),MO,65616,USA,,America/Chicago,,,,
599,599,Aeropostale,BRANSON AEROPOSTALE,36.643858,-93.264421,TANGER BRANSON,BRANSON (BHIRFCID),MO,65616,USA,,America/Chicago,,,,
638,638,Aeropostale,BATTLEFIELD AEROPOSTALE,37.16346,-93.262774,BATTLEFIELD MALL,SPRINGFIELD,MO,65804,USA,,America/Chicago,,,,
443,443,Aeropostale,GREAT PLAINS AEROPOSTALE,38.85468,-94.825783,GREAT MALL OF GREAT PLAIN,OLATHE,KS,66061,USA,,America/Chicago,,,,
772,772,Aeropostale,VILLAGE WEST AEROPOSTALE,39.12577,-94.82922,LEGENDS AT VILLAGE WEST,KANSAS CITY (KANTD),KS,66111,USA,,America/Chicago,,,,
940,940,Aeropostale,TOWN CENTER AEROPOSTALE,38.916405,-94.64411,TOWN CENTER PLAZA,LEAWOOD,KS,66211,USA,,America/Chicago,,,,
867,867,Aeropostale,OAK PARK AEROPOSTALE,38.956472,-94.717753,OAK PARK MALL,OVERLAND PARK OVET2,KS,66214,USA,,America/Chicago,,,,
376,376,Aeropostale,MANHATTAN-KS AEROPOSTALE,39.17736,-96.558748,MANHATTAN TOWN CENTER,MANHATTAN,KS,66502,USA,,America/Chicago,,,,
311,311,Aeropostale,WEST RIDGE AEROPOSTALE,39.033733,-95.762055,WEST RIDGE MALL,TOPEKA,KS,66604,USA,,America/Chicago,,,,
398,398,Aeropostale,TOWNE EAST AEROPOSTALE,37.679745,-97.247993,TOWNE EAST SQUARE,WICHITA,KS,67207,USA,,America/Chicago,,,,
558,558,Aeropostale,TOWNE WEST (KS) AEROPOSTA,37.673672,-97.39575,TOWNE WEST SQUARE,WICHITA,KS,67209,USA,,America/Chicago,,,,
971,971,Aeropostale,SHADOW LAKE AEROPOSTALE,41.137184,-96.029104,SHADOW LAKE MALL,PAPILLON,NE,68046,USA,,America/Chicago,,,,
292,292,Aeropostale,WEST ROADS AEROPOSTALE,41.264497,-96.066951,WEST ROADS MALL,OMAHA,NE,68114,USA,,America/Chicago,,,,
345,345,Aeropostale,CROSS ROADS AEROPOSTALE,41.25975,-96.026923,CROSS ROADS MALL,OMAHA,NE,68144,USA,,America/Chicago,,,,
700,700,Aeropostale,OAK VIEW AEROPOSTALE,41.22913,-96.138447,OAK VIEW MALL,OMAHA,NE,68144,USA,,America/Chicago,,,,
358,358,Aeropostale,GATEWAY (NE) AEROPOSTALE,40.813745,-96.636904,GATEWAY MALL,LINCOLN,NE,68505,USA,,America/Chicago,,,,
